[
  {
    "nom": "",
    "lon": 4.09546,
    "lat": 44.0358,
    "tension_kv": 400
  },
  {
    "nom": "Enedis Le Ronze",
    "lon": 4.73814,
    "lat": 45.63857,
    "tension_kv": 400
  },
  {
    "nom": "Enedis",
    "lon": 4.74871,
    "lat": 45.62781,
    "tension_kv": 400
  },
  {
    "nom": "",
    "lon": 7.27865,
    "lat": 44.04386,
    "tension_kv": 150
  },
  {
    "nom": "",
    "lon": 7.57693,
    "lat": 44.03019,
    "tension_kv": 63
  },
  {
    "nom": "",
    "lon": 6.93364,
    "lat": 45.4961,
    "tension_kv": 63
  },
  {
    "nom": "Enedis Gillardonne",
    "lon": 4.75039,
    "lat": 45.62511,
    "tension_kv": 400
  },
  {
    "nom": "Enedis LT Domaine de Sourzy",
    "lon": 4.75322,
    "lat": 45.62361,
    "tension_kv": 400
  },
  {
    "nom": "Enedis Le Muguet",
    "lon": 4.75274,
    "lat": 45.6351,
    "tension_kv": 400
  },
  {
    "nom": "Enedis Intermarché Grigny",
    "lon": 4.78235,
    "lat": 45.60507,
    "tension_kv": 400
  },
  {
    "nom": "Marcel Deprez",
    "lon": 5.72261,
    "lat": 45.19214,
    "tension_kv": 63
  },
  {
    "nom": "Mistral",
    "lon": 5.73746,
    "lat": 45.18386,
    "tension_kv": 63
  },
  {
    "nom": "",
    "lon": 6.68435,
    "lat": 45.44286,
    "tension_kv": 63
  },
  {
    "nom": "",
    "lon": 6.71964,
    "lat": 45.87225,
    "tension_kv": 63
  },
  {
    "nom": "",
    "lon": 5.40584,
    "lat": 45.85288,
    "tension_kv": 63
  },
  {
    "nom": "",
    "lon": 6.46105,
    "lat": 45.71631,
    "tension_kv": 63
  },
  {
    "nom": "Politecnico",
    "lon": 7.65492,
    "lat": 45.06154,
    "tension_kv": 220
  },
  {
    "nom": "",
    "lon": 6.72089,
    "lat": 45.21339,
    "tension_kv": 63
  },
  {
    "nom": "Arbarello",
    "lon": 7.67497,
    "lat": 45.07271,
    "tension_kv": 220
  },
  {
    "nom": "",
    "lon": 4.44894,
    "lat": 45.89774,
    "tension_kv": 410
  },
  {
    "nom": "",
    "lon": 6.70278,
    "lat": 45.90371,
    "tension_kv": 63
  },
  {
    "nom": "",
    "lon": 5.76362,
    "lat": 44.88265,
    "tension_kv": 225
  },
  {
    "nom": "Saumade",
    "lon": 3.89522,
    "lat": 43.62286,
    "tension_kv": 225
  },
  {
    "nom": "Crema",
    "lon": 9.67478,
    "lat": 45.35774,
    "tension_kv": 132
  },
  {
    "nom": "Mions",
    "lon": 4.97538,
    "lat": 45.67426,
    "tension_kv": 400
  },
  {
    "nom": "du Chaffard",
    "lon": 5.12279,
    "lat": 45.66224,
    "tension_kv": 400
  },
  {
    "nom": "La Boisse",
    "lon": 5.02347,
    "lat": 45.83832,
    "tension_kv": 400
  },
  {
    "nom": "Saint-Christol",
    "lon": 4.06967,
    "lat": 43.70432,
    "tension_kv": 225
  },
  {
    "nom": "Mauguio",
    "lon": 4.00347,
    "lat": 43.6262,
    "tension_kv": 63
  },
  {
    "nom": "Fréjorgues",
    "lon": 3.93851,
    "lat": 43.57272,
    "tension_kv": 63
  },
  {
    "nom": "Castelnau",
    "lon": 3.90746,
    "lat": 43.629,
    "tension_kv": 63
  },
  {
    "nom": "Electrique de VENDARGUES",
    "lon": 3.96054,
    "lat": 43.65494,
    "tension_kv": 63
  },
  {
    "nom": "Montpellier (Saint-Jean-de-Védas)",
    "lon": 3.84943,
    "lat": 43.58051,
    "tension_kv": 225
  },
  {
    "nom": "Tamareau",
    "lon": 3.71619,
    "lat": 43.63263,
    "tension_kv": 400
  },
  {
    "nom": "",
    "lon": 5.85612,
    "lat": 43.08722,
    "tension_kv": 63
  },
  {
    "nom": "des Quatre Seigneurs",
    "lon": 3.8425,
    "lat": 43.6469,
    "tension_kv": 225
  },
  {
    "nom": "Réaltor",
    "lon": 5.34286,
    "lat": 43.44697,
    "tension_kv": 400
  },
  {
    "nom": "Cabriès",
    "lon": 5.32126,
    "lat": 43.44368,
    "tension_kv": 225
  },
  {
    "nom": "La Duranne",
    "lon": 5.35537,
    "lat": 43.4854,
    "tension_kv": 225
  },
  {
    "nom": "Septèmes",
    "lon": 5.35372,
    "lat": 43.39629,
    "tension_kv": 225
  },
  {
    "nom": "San Giovanni Genova",
    "lon": 8.85515,
    "lat": 44.43694,
    "tension_kv": 132
  },
  {
    "nom": "Salon",
    "lon": 5.11578,
    "lat": 43.63244,
    "tension_kv": 225
  },
  {
    "nom": "UT Arti Grafiche",
    "lon": 9.67277,
    "lat": 45.67297,
    "tension_kv": 132
  },
  {
    "nom": "",
    "lon": 4.85544,
    "lat": 45.54172,
    "tension_kv": 63
  },
  {
    "nom": "C.S. BAS Bergamo",
    "lon": 9.6381,
    "lat": 45.67792,
    "tension_kv": 132
  },
  {
    "nom": "Curno",
    "lon": 9.6193,
    "lat": 45.6843,
    "tension_kv": 132
  },
  {
    "nom": "Ospiate",
    "lon": 9.09244,
    "lat": 45.53853,
    "tension_kv": 380
  },
  {
    "nom": "Mallifaud",
    "lon": 5.72223,
    "lat": 45.18184,
    "tension_kv": 63
  },
  {
    "nom": "UT Siad",
    "lon": 9.60997,
    "lat": 45.63213,
    "tension_kv": 132
  },
  {
    "nom": "Eybens",
    "lon": 5.75396,
    "lat": 45.15402,
    "tension_kv": 225
  },
  {
    "nom": "UT Pilenga",
    "lon": 9.6576,
    "lat": 45.61943,
    "tension_kv": 132
  },
  {
    "nom": "Sorisole",
    "lon": 9.62997,
    "lat": 45.73008,
    "tension_kv": 132
  },
  {
    "nom": "Gorlago",
    "lon": 9.82,
    "lat": 45.67112,
    "tension_kv": 380
  },
  {
    "nom": "",
    "lon": 4.76329,
    "lat": 43.42982,
    "tension_kv": 63
  },
  {
    "nom": "Nîmes-Talabot",
    "lon": 4.37151,
    "lat": 43.83636,
    "tension_kv": 225
  },
  {
    "nom": "la Sarre",
    "lon": 3.12046,
    "lat": 45.77117,
    "tension_kv": 225
  },
  {
    "nom": "",
    "lon": 6.57074,
    "lat": 45.29865,
    "tension_kv": 63
  },
  {
    "nom": "Longefan",
    "lon": 6.35812,
    "lat": 45.28417,
    "tension_kv": 225
  },
  {
    "nom": "Caderousse",
    "lon": 4.72155,
    "lat": 44.09472,
    "tension_kv": 63
  },
  {
    "nom": "Grassobbio",
    "lon": 9.72426,
    "lat": 45.64071,
    "tension_kv": 132
  },
  {
    "nom": "Malherbe",
    "lon": 5.72801,
    "lat": 45.16858,
    "tension_kv": 63
  },
  {
    "nom": "Vaucanson",
    "lon": 5.71108,
    "lat": 45.1719,
    "tension_kv": 63
  },
  {
    "nom": "Portique électrique de Beynost",
    "lon": 5.01893,
    "lat": 45.836,
    "tension_kv": 225
  },
  {
    "nom": "Paderno Dugnano",
    "lon": 9.17125,
    "lat": 45.57227,
    "tension_kv": 132
  },
  {
    "nom": "Borgoratti",
    "lon": 8.98671,
    "lat": 44.40315,
    "tension_kv": 132
  },
  {
    "nom": "Voltri",
    "lon": 8.73235,
    "lat": 44.43788,
    "tension_kv": 132
  },
  {
    "nom": "Île Verte",
    "lon": 5.74168,
    "lat": 45.19608,
    "tension_kv": 63
  },
  {
    "nom": "Albairate FS",
    "lon": 8.97038,
    "lat": 45.40432,
    "tension_kv": 132
  },
  {
    "nom": "Bissy",
    "lon": 5.90064,
    "lat": 45.59028,
    "tension_kv": 225
  },
  {
    "nom": "",
    "lon": 5.90257,
    "lat": 45.58879,
    "tension_kv": 63
  },
  {
    "nom": "",
    "lon": 5.88845,
    "lat": 45.5993,
    "tension_kv": 63
  },
  {
    "nom": "",
    "lon": 5.9072,
    "lat": 45.581,
    "tension_kv": 63
  },
  {
    "nom": "La Bathie",
    "lon": 6.44339,
    "lat": 45.6447,
    "tension_kv": 400
  },
  {
    "nom": "d'Albertville",
    "lon": 6.41817,
    "lat": 45.66189,
    "tension_kv": 400
  },
  {
    "nom": "Martinetto",
    "lon": 7.65211,
    "lat": 45.08607,
    "tension_kv": 220
  },
  {
    "nom": "Biella Ovest",
    "lon": 8.04275,
    "lat": 45.55723,
    "tension_kv": 132
  },
  {
    "nom": "Erzelli",
    "lon": 8.864,
    "lat": 44.4176,
    "tension_kv": 220
  },
  {
    "nom": "Magenta CS",
    "lon": 8.86186,
    "lat": 45.46081,
    "tension_kv": 132
  },
  {
    "nom": "Morigallo",
    "lon": 8.9152,
    "lat": 44.47713,
    "tension_kv": 220
  },
  {
    "nom": "Saint-Amour",
    "lon": 4.85043,
    "lat": 45.75534,
    "tension_kv": 225
  },
  {
    "nom": "UT Italtel",
    "lon": 9.03646,
    "lat": 45.47752,
    "tension_kv": 132
  },
  {
    "nom": "",
    "lon": 4.85073,
    "lat": 45.76991,
    "tension_kv": 63
  },
  {
    "nom": "Baggio",
    "lon": 9.05923,
    "lat": 45.46779,
    "tension_kv": 380
  },
  {
    "nom": "Tasset",
    "lon": 6.10268,
    "lat": 45.90913,
    "tension_kv": 63
  },
  {
    "nom": "Cran",
    "lon": 6.10681,
    "lat": 45.90488,
    "tension_kv": 63
  },
  {
    "nom": "Terrimbo",
    "lon": 3.15653,
    "lat": 42.45785,
    "tension_kv": 63
  },
  {
    "nom": "ERDF ZI Les Troques",
    "lon": 4.7613,
    "lat": 45.69782,
    "tension_kv": 400
  },
  {
    "nom": "Rosone",
    "lon": 7.41871,
    "lat": 45.4353,
    "tension_kv": 220
  },
  {
    "nom": "Borgomanero Est",
    "lon": 8.47566,
    "lat": 45.70309,
    "tension_kv": 132
  },
  {
    "nom": "Momo",
    "lon": 8.56005,
    "lat": 45.57958,
    "tension_kv": 132
  },
  {
    "nom": "Novara Sud",
    "lon": 8.60061,
    "lat": 45.42184,
    "tension_kv": 220
  },
  {
    "nom": "Cataroux",
    "lon": 3.09888,
    "lat": 45.7911,
    "tension_kv": 63
  },
  {
    "nom": "Mégève",
    "lon": 6.61345,
    "lat": 45.85865,
    "tension_kv": 63
  },
  {
    "nom": "Novara Nord",
    "lon": 8.62808,
    "lat": 45.45782,
    "tension_kv": 132
  },
  {
    "nom": "Brugherio - Smistamento elettrico TERNA",
    "lon": 9.28871,
    "lat": 45.55468,
    "tension_kv": 380
  },
  {
    "nom": "",
    "lon": 6.53504,
    "lat": 45.48202,
    "tension_kv": 63
  },
  {
    "nom": "",
    "lon": 6.93459,
    "lat": 43.66069,
    "tension_kv": 63
  },
  {
    "nom": "Sylvabelle",
    "lon": 5.37901,
    "lat": 43.28943,
    "tension_kv": 63
  },
  {
    "nom": "Plan de Grasse",
    "lon": 6.94025,
    "lat": 43.65569,
    "tension_kv": 225
  },
  {
    "nom": "Champagnier",
    "lon": 5.70928,
    "lat": 45.10619,
    "tension_kv": 400
  },
  {
    "nom": "Champradet",
    "lon": 3.05649,
    "lat": 45.78919,
    "tension_kv": 63
  },
  {
    "nom": "Croix-de-Neyrat",
    "lon": 3.10279,
    "lat": 45.81034,
    "tension_kv": 63
  },
  {
    "nom": "Malintrat",
    "lon": 3.19549,
    "lat": 45.80915,
    "tension_kv": 225
  },
  {
    "nom": "Mézel",
    "lon": 3.23703,
    "lat": 45.74568,
    "tension_kv": 63
  },
  {
    "nom": "Rulhat",
    "lon": 3.27051,
    "lat": 45.81351,
    "tension_kv": 400
  },
  {
    "nom": "Culhat",
    "lon": 3.35695,
    "lat": 45.86349,
    "tension_kv": 63
  },
  {
    "nom": "Chiari",
    "lon": 9.89768,
    "lat": 45.54073,
    "tension_kv": 380
  },
  {
    "nom": "Villa di Serio",
    "lon": 9.74033,
    "lat": 45.73051,
    "tension_kv": 132
  },
  {
    "nom": "Gorlago CP",
    "lon": 9.81719,
    "lat": 45.6703,
    "tension_kv": 132
  },
  {
    "nom": "Villa di Serio CP",
    "lon": 9.74115,
    "lat": 45.72863,
    "tension_kv": 132
  },
  {
    "nom": "Fornovo",
    "lon": 9.66971,
    "lat": 45.4806,
    "tension_kv": 132
  },
  {
    "nom": "UT Tenaris Arcore",
    "lon": 9.34395,
    "lat": 45.62986,
    "tension_kv": 132
  },
  {
    "nom": "Desio",
    "lon": 9.21401,
    "lat": 45.60492,
    "tension_kv": 132
  },
  {
    "nom": "Lanzano",
    "lon": 9.26304,
    "lat": 45.69793,
    "tension_kv": 132
  },
  {
    "nom": "Sovico",
    "lon": 9.24281,
    "lat": 45.6382,
    "tension_kv": 132
  },
  {
    "nom": "Giussano",
    "lon": 9.21728,
    "lat": 45.7021,
    "tension_kv": 132
  },
  {
    "nom": "Bernareggio",
    "lon": 9.39257,
    "lat": 45.6371,
    "tension_kv": 132
  },
  {
    "nom": "Castiglione Olona",
    "lon": 8.87607,
    "lat": 45.75048,
    "tension_kv": 132
  },
  {
    "nom": "Varese Sud",
    "lon": 8.83627,
    "lat": 45.78992,
    "tension_kv": 132
  },
  {
    "nom": "Breccia",
    "lon": 9.05232,
    "lat": 45.79739,
    "tension_kv": 132
  },
  {
    "nom": "Varano",
    "lon": 8.70792,
    "lat": 45.76767,
    "tension_kv": 132
  },
  {
    "nom": "Cagno",
    "lon": 8.90294,
    "lat": 45.81396,
    "tension_kv": 380
  },
  {
    "nom": "Cunardo",
    "lon": 8.8167,
    "lat": 45.93052,
    "tension_kv": 132
  },
  {
    "nom": "Parabiago",
    "lon": 8.96318,
    "lat": 45.5443,
    "tension_kv": 132
  },
  {
    "nom": "Lainate",
    "lon": 9.03469,
    "lat": 45.54425,
    "tension_kv": 132
  },
  {
    "nom": "Rho CP",
    "lon": 9.04709,
    "lat": 45.51604,
    "tension_kv": 132
  },
  {
    "nom": "Busto Ovest",
    "lon": 8.81532,
    "lat": 45.61616,
    "tension_kv": 132
  },
  {
    "nom": "Lonate Pozzolo",
    "lon": 8.76449,
    "lat": 45.60633,
    "tension_kv": 132
  },
  {
    "nom": "Mercallo",
    "lon": 8.66801,
    "lat": 45.73683,
    "tension_kv": 380
  },
  {
    "nom": "Vittuone",
    "lon": 8.94605,
    "lat": 45.49469,
    "tension_kv": 132
  },
  {
    "nom": "RFI Rho",
    "lon": 9.02895,
    "lat": 45.51837,
    "tension_kv": 132
  },
  {
    "nom": "Arconate",
    "lon": 8.83745,
    "lat": 45.53298,
    "tension_kv": 132
  },
  {
    "nom": "Somma Lombardo",
    "lon": 8.66862,
    "lat": 45.67729,
    "tension_kv": 132
  },
  {
    "nom": "Vizzola Ticino",
    "lon": 8.68353,
    "lat": 45.62495,
    "tension_kv": 132
  },
  {
    "nom": "Cittiglio",
    "lon": 8.65069,
    "lat": 45.89287,
    "tension_kv": 132
  },
  {
    "nom": "Tornavento",
    "lon": 8.70546,
    "lat": 45.58275,
    "tension_kv": 132
  },
  {
    "nom": "Gaggiano",
    "lon": 9.02435,
    "lat": 45.40174,
    "tension_kv": 132
  },
  {
    "nom": "Pogliano",
    "lon": 8.97261,
    "lat": 45.52929,
    "tension_kv": 380
  },
  {
    "nom": "Cabina primaria Abbiategrasso",
    "lon": 8.91869,
    "lat": 45.40673,
    "tension_kv": 132
  },
  {
    "nom": "Cologno",
    "lon": 9.29205,
    "lat": 45.54113,
    "tension_kv": 132
  },
  {
    "nom": "Vigevano Est",
    "lon": 8.88159,
    "lat": 45.3187,
    "tension_kv": 132
  },
  {
    "nom": "Tecnopolimeri CS",
    "lon": 9.08167,
    "lat": 45.62329,
    "tension_kv": 132
  },
  {
    "nom": "Cesano Maderno",
    "lon": 9.10848,
    "lat": 45.63699,
    "tension_kv": 220
  },
  {
    "nom": "UT Nylstar Cesano",
    "lon": 9.11937,
    "lat": 45.62898,
    "tension_kv": 132
  },
  {
    "nom": "Cabina primaria di Bovisio",
    "lon": 9.15579,
    "lat": 45.61462,
    "tension_kv": 132
  },
  {
    "nom": "UT Ansaldo Legnano",
    "lon": 8.91089,
    "lat": 45.58534,
    "tension_kv": 132
  },
  {
    "nom": "Busto Sud",
    "lon": 8.8337,
    "lat": 45.58492,
    "tension_kv": 132
  },
  {
    "nom": "Bovisio",
    "lon": 9.17086,
    "lat": 45.61306,
    "tension_kv": 380
  },
  {
    "nom": "",
    "lon": 3.75688,
    "lat": 45.37844,
    "tension_kv": 63
  },
  {
    "nom": "Station d'Ambert",
    "lon": 3.74646,
    "lat": 45.57375,
    "tension_kv": 63
  },
  {
    "nom": "d'Issoire",
    "lon": 3.2548,
    "lat": 45.55492,
    "tension_kv": 225
  },
  {
    "nom": "",
    "lon": 3.52964,
    "lat": 45.85514,
    "tension_kv": 63
  },
  {
    "nom": "Rondissone",
    "lon": 7.93584,
    "lat": 45.23282,
    "tension_kv": 380
  },
  {
    "nom": "Stazione Elettrica Cislago",
    "lon": 8.98192,
    "lat": 45.6536,
    "tension_kv": 380
  },
  {
    "nom": "Castano Primo",
    "lon": 8.76576,
    "lat": 45.54145,
    "tension_kv": 132
  },
  {
    "nom": "Cavenago",
    "lon": 9.4377,
    "lat": 45.58994,
    "tension_kv": 132
  },
  {
    "nom": "Ciserano",
    "lon": 9.60052,
    "lat": 45.57781,
    "tension_kv": 380
  },
  {
    "nom": "Trezzo CP",
    "lon": 9.48565,
    "lat": 45.60299,
    "tension_kv": 132
  },
  {
    "nom": "Cassano CS",
    "lon": 9.50209,
    "lat": 45.51351,
    "tension_kv": 220
  },
  {
    "nom": "Busto Garolfo",
    "lon": 8.89136,
    "lat": 45.55899,
    "tension_kv": 132
  },
  {
    "nom": "UT Bragonzi",
    "lon": 8.74911,
    "lat": 45.60384,
    "tension_kv": 132
  },
  {
    "nom": "",
    "lon": 4.84436,
    "lat": 45.7065,
    "tension_kv": 63
  },
  {
    "nom": "EDF",
    "lon": 4.83881,
    "lat": 44.12875,
    "tension_kv": 63
  },
  {
    "nom": "Ricevitrice Nord Milano",
    "lon": 9.23565,
    "lat": 45.51282,
    "tension_kv": 220
  },
  {
    "nom": "Sesto San Giovanni",
    "lon": 9.22999,
    "lat": 45.52231,
    "tension_kv": 220
  },
  {
    "nom": "Cologno CP",
    "lon": 9.29955,
    "lat": 45.52675,
    "tension_kv": 132
  },
  {
    "nom": "Peschiera Borromeo",
    "lon": 9.29478,
    "lat": 45.42972,
    "tension_kv": 132
  },
  {
    "nom": "IBM Segrate CS",
    "lon": 9.30173,
    "lat": 45.46628,
    "tension_kv": 132
  },
  {
    "nom": "Rodano",
    "lon": 9.32325,
    "lat": 45.45927,
    "tension_kv": 132
  },
  {
    "nom": "",
    "lon": 5.82802,
    "lat": 45.2018,
    "tension_kv": 63
  },
  {
    "nom": "Vercelli Sud",
    "lon": 8.40489,
    "lat": 45.30104,
    "tension_kv": 132
  },
  {
    "nom": "Casale Monferrato",
    "lon": 8.44165,
    "lat": 45.1159,
    "tension_kv": 132
  },
  {
    "nom": "UT Sisas",
    "lon": 9.33459,
    "lat": 45.48351,
    "tension_kv": 132
  },
  {
    "nom": "Saint-Jean de Sixt",
    "lon": 6.41868,
    "lat": 45.91455,
    "tension_kv": 63
  },
  {
    "nom": "",
    "lon": 5.90235,
    "lat": 45.69617,
    "tension_kv": 63
  },
  {
    "nom": "Port-du-Temple",
    "lon": 4.83224,
    "lat": 45.76054,
    "tension_kv": 63
  },
  {
    "nom": "Biella Est",
    "lon": 8.08294,
    "lat": 45.54865,
    "tension_kv": 220
  },
  {
    "nom": "RFI Greggio",
    "lon": 8.38453,
    "lat": 45.46071,
    "tension_kv": 132
  },
  {
    "nom": "Mortara",
    "lon": 8.72965,
    "lat": 45.26296,
    "tension_kv": 132
  },
  {
    "nom": "Agrate CP",
    "lon": 9.3555,
    "lat": 45.58799,
    "tension_kv": 132
  },
  {
    "nom": "Caponago",
    "lon": 9.38217,
    "lat": 45.56823,
    "tension_kv": 132
  },
  {
    "nom": "",
    "lon": 4.8991,
    "lat": 45.70705,
    "tension_kv": 63
  },
  {
    "nom": "",
    "lon": 9.26878,
    "lat": 45.43022,
    "tension_kv": 132
  },
  {
    "nom": "Creys-Malville",
    "lon": 5.4665,
    "lat": 45.75615,
    "tension_kv": 400
  },
  {
    "nom": "Grande-Île",
    "lon": 6.0282,
    "lat": 45.47066,
    "tension_kv": 400
  },
  {
    "nom": "Charpenay",
    "lon": 4.69004,
    "lat": 45.81889,
    "tension_kv": 400
  },
  {
    "nom": "d'Échalas",
    "lon": 4.71926,
    "lat": 45.54285,
    "tension_kv": 400
  },
  {
    "nom": "Pivoz-Cordier",
    "lon": 4.76123,
    "lat": 45.40933,
    "tension_kv": 400
  },
  {
    "nom": "Coulange",
    "lon": 4.72333,
    "lat": 44.63239,
    "tension_kv": 400
  },
  {
    "nom": "Chambaud",
    "lon": 4.97632,
    "lat": 45.00141,
    "tension_kv": 225
  },
  {
    "nom": "Beaumont Monteux",
    "lon": 4.92734,
    "lat": 45.01933,
    "tension_kv": 400
  },
  {
    "nom": "Bonneterre",
    "lon": 4.88228,
    "lat": 45.76392,
    "tension_kv": 225
  },
  {
    "nom": "Achille Lignon",
    "lon": 4.86088,
    "lat": 45.78504,
    "tension_kv": 63
  },
  {
    "nom": "Vignières",
    "lon": 6.14809,
    "lat": 45.91639,
    "tension_kv": 63
  },
  {
    "nom": "Cogoleto",
    "lon": 8.65483,
    "lat": 44.40327,
    "tension_kv": 132
  },
  {
    "nom": "Fiat Centro Ricerche",
    "lon": 7.56852,
    "lat": 45.01228,
    "tension_kv": 132
  },
  {
    "nom": "Sangone TR3 TR4",
    "lon": 7.61785,
    "lat": 45.01245,
    "tension_kv": 132
  },
  {
    "nom": "Sangone",
    "lon": 7.61561,
    "lat": 45.01212,
    "tension_kv": 220
  },
  {
    "nom": "Meyrargues",
    "lon": 5.5137,
    "lat": 43.64373,
    "tension_kv": 63
  },
  {
    "nom": "",
    "lon": 5.77833,
    "lat": 43.83145,
    "tension_kv": 63
  },
  {
    "nom": "Le Broc-Carros",
    "lon": 7.19157,
    "lat": 43.80318,
    "tension_kv": 400
  },
  {
    "nom": "Meritor HVS",
    "lon": 8.65507,
    "lat": 45.52511,
    "tension_kv": 132
  },
  {
    "nom": "Cameri",
    "lon": 8.65766,
    "lat": 45.52432,
    "tension_kv": 132
  },
  {
    "nom": "Saint-Estève",
    "lon": 5.38456,
    "lat": 43.69318,
    "tension_kv": 225
  },
  {
    "nom": "",
    "lon": 5.56943,
    "lat": 43.31226,
    "tension_kv": 400
  },
  {
    "nom": "",
    "lon": 3.22995,
    "lat": 43.33,
    "tension_kv": 63
  },
  {
    "nom": "Pieve Albignola",
    "lon": 8.95164,
    "lat": 45.11269,
    "tension_kv": 380
  },
  {
    "nom": "RFI Gravellona",
    "lon": 8.42926,
    "lat": 45.93576,
    "tension_kv": 132
  },
  {
    "nom": "Gravellona",
    "lon": 8.43096,
    "lat": 45.93442,
    "tension_kv": 132
  },
  {
    "nom": "Neoules",
    "lon": 6.02233,
    "lat": 43.27641,
    "tension_kv": 400
  },
  {
    "nom": "San Rocco al Porto",
    "lon": 9.70175,
    "lat": 45.09263,
    "tension_kv": 380
  },
  {
    "nom": "Valbonne",
    "lon": 7.06751,
    "lat": 43.61673,
    "tension_kv": 63
  },
  {
    "nom": "RFI Arenzano",
    "lon": 8.67758,
    "lat": 44.40291,
    "tension_kv": 132
  },
  {
    "nom": "Villarodin",
    "lon": 6.71524,
    "lat": 45.21274,
    "tension_kv": 400
  },
  {
    "nom": "Novedrate",
    "lon": 9.12181,
    "lat": 45.70532,
    "tension_kv": 132
  },
  {
    "nom": "Nord-Ouest",
    "lon": 5.71219,
    "lat": 45.19893,
    "tension_kv": 63
  },
  {
    "nom": "Pariset",
    "lon": 5.69977,
    "lat": 45.18011,
    "tension_kv": 225
  },
  {
    "nom": "Volvon",
    "lon": 4.32141,
    "lat": 45.55955,
    "tension_kv": 225
  },
  {
    "nom": "Cailloux sur Fontaines",
    "lon": 4.89893,
    "lat": 45.86515,
    "tension_kv": 225
  },
  {
    "nom": "des Meunières",
    "lon": 4.87186,
    "lat": 45.92245,
    "tension_kv": 225
  },
  {
    "nom": "",
    "lon": 4.81871,
    "lat": 45.89941,
    "tension_kv": 63
  },
  {
    "nom": "Benedetto Marcello",
    "lon": 9.20706,
    "lat": 45.47989,
    "tension_kv": 220
  },
  {
    "nom": "FS Casale Monferrato",
    "lon": 8.43927,
    "lat": 45.16352,
    "tension_kv": 132
  },
  {
    "nom": "ACCAM Consorzio",
    "lon": 8.8396,
    "lat": 45.57388,
    "tension_kv": 132
  },
  {
    "nom": "Cerro Maggiore",
    "lon": 8.94963,
    "lat": 45.58684,
    "tension_kv": 132
  },
  {
    "nom": "source de Malgovert",
    "lon": 6.78934,
    "lat": 45.61933,
    "tension_kv": 63
  },
  {
    "nom": "Trino Centrale",
    "lon": 8.19446,
    "lat": 45.25081,
    "tension_kv": 380
  },
  {
    "nom": "Leri Cavour",
    "lon": 8.18944,
    "lat": 45.24598,
    "tension_kv": 132
  },
  {
    "nom": "Castelnuovo",
    "lon": 8.89527,
    "lat": 44.99088,
    "tension_kv": 380
  },
  {
    "nom": "Trino 220 kV",
    "lon": 8.2754,
    "lat": 45.18378,
    "tension_kv": 220
  },
  {
    "nom": "RFI Valenza",
    "lon": 8.62569,
    "lat": 45.02649,
    "tension_kv": 132
  },
  {
    "nom": "Alessandria Centrale",
    "lon": 8.60787,
    "lat": 44.93951,
    "tension_kv": 132
  },
  {
    "nom": "Valenza",
    "lon": 8.62441,
    "lat": 45.01301,
    "tension_kv": 132
  },
  {
    "nom": "Felizzano",
    "lon": 8.43006,
    "lat": 44.90103,
    "tension_kv": 132
  },
  {
    "nom": "RFI Solero",
    "lon": 8.50527,
    "lat": 44.91468,
    "tension_kv": 132
  },
  {
    "nom": "Spinetta Marengo",
    "lon": 8.71422,
    "lat": 44.89454,
    "tension_kv": 132
  },
  {
    "nom": "Sarpom Alessandria",
    "lon": 8.65694,
    "lat": 44.90877,
    "tension_kv": 132
  },
  {
    "nom": "Aulara",
    "lon": 8.59332,
    "lat": 44.88039,
    "tension_kv": 132
  },
  {
    "nom": "Alessandria Sud",
    "lon": 8.62905,
    "lat": 44.90745,
    "tension_kv": 132
  },
  {
    "nom": "Frugarolo",
    "lon": 8.68234,
    "lat": 44.8315,
    "tension_kv": 132
  },
  {
    "nom": "Vercelli Nord",
    "lon": 8.41576,
    "lat": 45.33445,
    "tension_kv": 220
  },
  {
    "nom": "Ferrera Erbognone",
    "lon": 8.86519,
    "lat": 45.09994,
    "tension_kv": 380
  },
  {
    "nom": "Voghera",
    "lon": 8.97178,
    "lat": 45.02778,
    "tension_kv": 380
  },
  {
    "nom": "Piossasco",
    "lon": 7.44173,
    "lat": 44.97028,
    "tension_kv": 380
  },
  {
    "nom": "Condove",
    "lon": 7.30231,
    "lat": 45.11328,
    "tension_kv": 132
  },
  {
    "nom": "Cereseto",
    "lon": 8.31453,
    "lat": 45.10336,
    "tension_kv": 132
  },
  {
    "nom": "Castello d'Annone",
    "lon": 8.34461,
    "lat": 44.87365,
    "tension_kv": 132
  },
  {
    "nom": "Spinetta S/E",
    "lon": 8.66669,
    "lat": 44.88689,
    "tension_kv": 132
  },
  {
    "nom": "Villanova Asti",
    "lon": 7.92638,
    "lat": 44.93547,
    "tension_kv": 132
  },
  {
    "nom": "Michelin Alessandria",
    "lon": 8.70778,
    "lat": 44.89115,
    "tension_kv": 132
  },
  {
    "nom": "Trino CP",
    "lon": 8.30506,
    "lat": 45.1894,
    "tension_kv": 132
  },
  {
    "nom": "Nerviano",
    "lon": 8.97934,
    "lat": 45.54591,
    "tension_kv": 132
  },
  {
    "nom": "Campore",
    "lon": 7.64283,
    "lat": 45.39784,
    "tension_kv": 132
  },
  {
    "nom": "Cairo Energia",
    "lon": 8.28992,
    "lat": 44.3803,
    "tension_kv": 132
  },
  {
    "nom": "Cairo CP",
    "lon": 8.27925,
    "lat": 44.38104,
    "tension_kv": 132
  },
  {
    "nom": "Cairo Centrale",
    "lon": 8.27407,
    "lat": 44.38241,
    "tension_kv": 132
  },
  {
    "nom": "Magliano",
    "lon": 7.78926,
    "lat": 44.46288,
    "tension_kv": 380
  },
  {
    "nom": "Casanova",
    "lon": 7.78562,
    "lat": 44.87572,
    "tension_kv": 380
  },
  {
    "nom": "Casanova",
    "lon": 7.78391,
    "lat": 44.87394,
    "tension_kv": 132
  },
  {
    "nom": "RFI Nichelino",
    "lon": 7.63836,
    "lat": 44.98982,
    "tension_kv": 132
  },
  {
    "nom": "Boutre",
    "lon": 5.83237,
    "lat": 43.69087,
    "tension_kv": 400
  },
  {
    "nom": "Asti Nord",
    "lon": 8.18047,
    "lat": 44.91757,
    "tension_kv": 132
  },
  {
    "nom": "Cerreto Asti",
    "lon": 8.03934,
    "lat": 45.04976,
    "tension_kv": 132
  },
  {
    "nom": "RFI San Damiano",
    "lon": 8.11923,
    "lat": 44.88012,
    "tension_kv": 132
  },
  {
    "nom": "Cudraz",
    "lon": 6.44727,
    "lat": 45.61854,
    "tension_kv": 63
  },
  {
    "nom": "Calliano",
    "lon": 8.24236,
    "lat": 44.99799,
    "tension_kv": 132
  },
  {
    "nom": "Asti Sud",
    "lon": 8.22697,
    "lat": 44.90125,
    "tension_kv": 132
  },
  {
    "nom": "Avir Asti",
    "lon": 8.26968,
    "lat": 44.90308,
    "tension_kv": 132
  },
  {
    "nom": "RFI Novi Ligure",
    "lon": 8.7743,
    "lat": 44.77907,
    "tension_kv": 132
  },
  {
    "nom": "San Bartolomeo",
    "lon": 8.8476,
    "lat": 44.75577,
    "tension_kv": 132
  },
  {
    "nom": "Roquette Italia Cassano Spinola",
    "lon": 8.85262,
    "lat": 44.76112,
    "tension_kv": 132
  },
  {
    "nom": "Vignole",
    "lon": 8.88455,
    "lat": 44.70582,
    "tension_kv": 380
  },
  {
    "nom": "La Palun",
    "lon": 5.48608,
    "lat": 43.46633,
    "tension_kv": 225
  },
  {
    "nom": "RFI Villanova",
    "lon": 7.94097,
    "lat": 44.96298,
    "tension_kv": 132
  },
  {
    "nom": "Chieri",
    "lon": 7.84934,
    "lat": 45.01089,
    "tension_kv": 132
  },
  {
    "nom": "Embraco",
    "lon": 7.90455,
    "lat": 44.99825,
    "tension_kv": 132
  },
  {
    "nom": "OCava",
    "lon": 7.99051,
    "lat": 44.88053,
    "tension_kv": 132
  },
  {
    "nom": "Poirino",
    "lon": 7.83186,
    "lat": 44.93283,
    "tension_kv": 132
  },
  {
    "nom": "Serravalle Scrivia",
    "lon": 8.86325,
    "lat": 44.70649,
    "tension_kv": 132
  },
  {
    "nom": "SSE Arquata, Parte Terna",
    "lon": 8.87759,
    "lat": 44.69799,
    "tension_kv": 132
  },
  {
    "nom": "Cementir Arquata Scrivia",
    "lon": 8.87495,
    "lat": 44.6945,
    "tension_kv": 132
  },
  {
    "nom": "Grisolles",
    "lon": 6.13653,
    "lat": 44.57838,
    "tension_kv": 225
  },
  {
    "nom": "Novi Ligure",
    "lon": 8.76791,
    "lat": 44.76591,
    "tension_kv": 220
  },
  {
    "nom": "Ital Novi",
    "lon": 8.76142,
    "lat": 44.77548,
    "tension_kv": 220
  },
  {
    "nom": "Tortona",
    "lon": 8.8649,
    "lat": 44.90888,
    "tension_kv": 132
  },
  {
    "nom": "Castelnuovo CP",
    "lon": 8.89509,
    "lat": 44.98976,
    "tension_kv": 132
  },
  {
    "nom": "Source Haute-Tension",
    "lon": 4.83019,
    "lat": 45.7759,
    "tension_kv": 225
  },
  {
    "nom": "Ovada",
    "lon": 8.64988,
    "lat": 44.63655,
    "tension_kv": 132
  },
  {
    "nom": "Villa",
    "lon": 7.20861,
    "lat": 45.43991,
    "tension_kv": 220
  },
  {
    "nom": "Villeneuve",
    "lon": 7.19386,
    "lat": 45.70098,
    "tension_kv": 220
  },
  {
    "nom": "Albino",
    "lon": 9.81831,
    "lat": 45.76164,
    "tension_kv": 132
  },
  {
    "nom": "Pont AEM",
    "lon": 7.5943,
    "lat": 45.41691,
    "tension_kv": 132
  },
  {
    "nom": "San Giorgio Canavese",
    "lon": 7.77299,
    "lat": 45.3405,
    "tension_kv": 132
  },
  {
    "nom": "Castellamonte",
    "lon": 7.72118,
    "lat": 45.37783,
    "tension_kv": 132
  },
  {
    "nom": "Favria",
    "lon": 7.70258,
    "lat": 45.33192,
    "tension_kv": 132
  },
  {
    "nom": "Rivara",
    "lon": 7.6212,
    "lat": 45.33221,
    "tension_kv": 132
  },
  {
    "nom": "RFI Caluso",
    "lon": 7.89927,
    "lat": 45.29863,
    "tension_kv": 132
  },
  {
    "nom": "Caluso CP",
    "lon": 7.8998,
    "lat": 45.29918,
    "tension_kv": 132
  },
  {
    "nom": "P.I.CHI",
    "lon": 7.89856,
    "lat": 45.21033,
    "tension_kv": 132
  },
  {
    "nom": "Lancia Chivasso",
    "lon": 7.89939,
    "lat": 45.21065,
    "tension_kv": 132
  },
  {
    "nom": "IC Torrazza",
    "lon": 7.96586,
    "lat": 45.21075,
    "tension_kv": 132
  },
  {
    "nom": "Torrazza",
    "lon": 7.95873,
    "lat": 45.21627,
    "tension_kv": 132
  },
  {
    "nom": "RFI Torrazza",
    "lon": 7.96514,
    "lat": 45.21044,
    "tension_kv": 132
  },
  {
    "nom": "RFI Chivasso",
    "lon": 7.94036,
    "lat": 45.22989,
    "tension_kv": 132
  },
  {
    "nom": "Chivasso Termica 220kV",
    "lon": 7.90339,
    "lat": 45.18495,
    "tension_kv": 220
  },
  {
    "nom": "Cimena",
    "lon": 7.87994,
    "lat": 45.17459,
    "tension_kv": 132
  },
  {
    "nom": "Viverone",
    "lon": 8.0402,
    "lat": 45.43042,
    "tension_kv": 132
  },
  {
    "nom": "Ciriè",
    "lon": 7.59883,
    "lat": 45.21982,
    "tension_kv": 132
  },
  {
    "nom": "Druento",
    "lon": 7.58446,
    "lat": 45.12442,
    "tension_kv": 132
  },
  {
    "nom": "Canelli",
    "lon": 8.30123,
    "lat": 44.72896,
    "tension_kv": 132
  },
  {
    "nom": "Montegrosso",
    "lon": 8.2562,
    "lat": 44.81439,
    "tension_kv": 132
  },
  {
    "nom": "Incisa",
    "lon": 8.37245,
    "lat": 44.78693,
    "tension_kv": 132
  },
  {
    "nom": "IC Sinterama",
    "lon": 8.07952,
    "lat": 45.52757,
    "tension_kv": 132
  },
  {
    "nom": "Sinterama Utente",
    "lon": 8.07948,
    "lat": 45.5279,
    "tension_kv": 132
  },
  {
    "nom": "Biella Sud",
    "lon": 8.127,
    "lat": 45.49993,
    "tension_kv": 132
  },
  {
    "nom": "UEI Tavagnasco",
    "lon": 7.8219,
    "lat": 45.55253,
    "tension_kv": 132
  },
  {
    "nom": "Quincinetto 2",
    "lon": 7.80349,
    "lat": 45.56987,
    "tension_kv": 132
  },
  {
    "nom": "Pont-Saint-Martin CP",
    "lon": 7.79384,
    "lat": 45.59118,
    "tension_kv": 132
  },
  {
    "nom": "Pont-Saint-Martin",
    "lon": 7.80171,
    "lat": 45.59955,
    "tension_kv": 132
  },
  {
    "nom": "Ayas",
    "lon": 7.69514,
    "lat": 45.79686,
    "tension_kv": 132
  },
  {
    "nom": "Covalou carico",
    "lon": 7.59899,
    "lat": 45.7715,
    "tension_kv": 132
  },
  {
    "nom": "Covalou",
    "lon": 7.59531,
    "lat": 45.77415,
    "tension_kv": 132
  },
  {
    "nom": "Avise",
    "lon": 7.14206,
    "lat": 45.70643,
    "tension_kv": 220
  },
  {
    "nom": "Aymavilles",
    "lon": 7.2544,
    "lat": 45.7105,
    "tension_kv": 132
  },
  {
    "nom": "Champagne 2",
    "lon": 7.19028,
    "lat": 45.69985,
    "tension_kv": 132
  },
  {
    "nom": "Champagne 1",
    "lon": 7.1907,
    "lat": 45.69906,
    "tension_kv": 132
  },
  {
    "nom": "d'Argelès-sur-Mer",
    "lon": 3.00743,
    "lat": 42.5497,
    "tension_kv": 63
  },
  {
    "nom": "Terrimbo",
    "lon": 3.15625,
    "lat": 42.45801,
    "tension_kv": 63
  },
  {
    "nom": "Cretaz",
    "lon": 7.62119,
    "lat": 45.74473,
    "tension_kv": 132
  },
  {
    "nom": "Chatillon Centrale",
    "lon": 7.5924,
    "lat": 45.74381,
    "tension_kv": 220
  },
  {
    "nom": "Deltacogne Aosta",
    "lon": 7.3277,
    "lat": 45.73038,
    "tension_kv": 220
  },
  {
    "nom": "Gressoney",
    "lon": 7.82606,
    "lat": 45.83002,
    "tension_kv": 132
  },
  {
    "nom": "Hône 1",
    "lon": 7.73342,
    "lat": 45.61921,
    "tension_kv": 132
  },
  {
    "nom": "Hône 2",
    "lon": 7.73463,
    "lat": 45.61119,
    "tension_kv": 132
  },
  {
    "nom": "Isollaz",
    "lon": 7.71408,
    "lat": 45.69173,
    "tension_kv": 132
  },
  {
    "nom": "Perreres centrale",
    "lon": 7.61671,
    "lat": 45.90725,
    "tension_kv": 132
  },
  {
    "nom": "Maen",
    "lon": 7.61441,
    "lat": 45.86787,
    "tension_kv": 132
  },
  {
    "nom": "Montjovet centrale",
    "lon": 7.66726,
    "lat": 45.71978,
    "tension_kv": 220
  },
  {
    "nom": "Morgex",
    "lon": 7.01882,
    "lat": 45.76139,
    "tension_kv": 132
  },
  {
    "nom": "Quart",
    "lon": 7.4457,
    "lat": 45.73953,
    "tension_kv": 220
  },
  {
    "nom": "Pontepietra",
    "lon": 7.33232,
    "lat": 45.73744,
    "tension_kv": 132
  },
  {
    "nom": "Verrès",
    "lon": 7.69894,
    "lat": 45.65662,
    "tension_kv": 132
  },
  {
    "nom": "UT IGI Verrès",
    "lon": 7.68253,
    "lat": 45.66154,
    "tension_kv": 132
  },
  {
    "nom": "Valpelline G1",
    "lon": 7.33341,
    "lat": 45.82524,
    "tension_kv": 220
  },
  {
    "nom": "Vert",
    "lon": 7.77507,
    "lat": 45.59342,
    "tension_kv": 132
  },
  {
    "nom": "Zuino",
    "lon": 7.86386,
    "lat": 45.6971,
    "tension_kv": 132
  },
  {
    "nom": "Praoil Pollein",
    "lon": 7.36606,
    "lat": 45.7345,
    "tension_kv": 132
  },
  {
    "nom": "Rhin",
    "lon": 7.30346,
    "lat": 45.79007,
    "tension_kv": 132
  },
  {
    "nom": "Saint Clair",
    "lon": 7.61973,
    "lat": 45.74095,
    "tension_kv": 132
  },
  {
    "nom": "Sendren",
    "lon": 7.82463,
    "lat": 45.79252,
    "tension_kv": 132
  },
  {
    "nom": "San Bernardo",
    "lon": 7.88767,
    "lat": 45.42369,
    "tension_kv": 132
  },
  {
    "nom": "Scarmagno T1",
    "lon": 7.85649,
    "lat": 45.37898,
    "tension_kv": 132
  },
  {
    "nom": "Spigno CP",
    "lon": 8.33906,
    "lat": 44.54695,
    "tension_kv": 132
  },
  {
    "nom": "Spigno Centrale",
    "lon": 8.33963,
    "lat": 44.54563,
    "tension_kv": 132
  },
  {
    "nom": "Vallemosso",
    "lon": 8.1508,
    "lat": 45.62998,
    "tension_kv": 132
  },
  {
    "nom": "Bornate",
    "lon": 8.28833,
    "lat": 45.6981,
    "tension_kv": 132
  },
  {
    "nom": "Brossasco",
    "lon": 7.35339,
    "lat": 44.56795,
    "tension_kv": 132
  },
  {
    "nom": "Brossasco TR1",
    "lon": 7.35388,
    "lat": 44.5676,
    "tension_kv": 132
  },
  {
    "nom": "Busca",
    "lon": 7.48084,
    "lat": 44.51959,
    "tension_kv": 132
  },
  {
    "nom": "Burgo V UT",
    "lon": 7.488,
    "lat": 44.59395,
    "tension_kv": 132
  },
  {
    "nom": "Kimberly Villanovetta",
    "lon": 7.48499,
    "lat": 44.59,
    "tension_kv": 132
  },
  {
    "nom": "Carrù",
    "lon": 7.87779,
    "lat": 44.46619,
    "tension_kv": 132
  },
  {
    "nom": "Casteldelfino",
    "lon": 7.06411,
    "lat": 44.58647,
    "tension_kv": 132
  },
  {
    "nom": "RFI Borgomanero",
    "lon": 8.47438,
    "lat": 45.69206,
    "tension_kv": 132
  },
  {
    "nom": "Magenta",
    "lon": 8.87772,
    "lat": 45.47345,
    "tension_kv": 220
  },
  {
    "nom": "RFI Vercelli",
    "lon": 8.42708,
    "lat": 45.33262,
    "tension_kv": 132
  },
  {
    "nom": "FS Bussoleno",
    "lon": 7.12754,
    "lat": 45.13639,
    "tension_kv": 132
  },
  {
    "nom": "FS Salbeltrand",
    "lon": 6.88779,
    "lat": 45.07475,
    "tension_kv": 132
  },
  {
    "nom": "FS Verbania",
    "lon": 8.4724,
    "lat": 45.93544,
    "tension_kv": 132
  },
  {
    "nom": "RFI Trasta",
    "lon": 8.89148,
    "lat": 44.45409,
    "tension_kv": 132
  },
  {
    "nom": "Trasta",
    "lon": 8.8921,
    "lat": 44.45358,
    "tension_kv": 132
  },
  {
    "nom": "RFI Settimo Torinese",
    "lon": 7.76212,
    "lat": 45.13775,
    "tension_kv": 132
  },
  {
    "nom": "RFI Bardonecchia",
    "lon": 6.70873,
    "lat": 45.07878,
    "tension_kv": 70
  },
  {
    "nom": "Bardonecchia GR",
    "lon": 6.70824,
    "lat": 45.07969,
    "tension_kv": 132
  },
  {
    "nom": "Bardonecchia Melezet",
    "lon": 6.66123,
    "lat": 45.05127,
    "tension_kv": 132
  },
  {
    "nom": "Bardonecchia CP",
    "lon": 6.70812,
    "lat": 45.07861,
    "tension_kv": 132
  },
  {
    "nom": "San Giacomo Cuneo",
    "lon": 7.53694,
    "lat": 44.39572,
    "tension_kv": 132
  },
  {
    "nom": "RFI Cuneo",
    "lon": 7.52409,
    "lat": 44.37901,
    "tension_kv": 132
  },
  {
    "nom": "RFI Fontanetto",
    "lon": 8.18721,
    "lat": 45.19174,
    "tension_kv": 132
  },
  {
    "nom": "RFI Novara",
    "lon": 8.6312,
    "lat": 45.45633,
    "tension_kv": 132
  },
  {
    "nom": "RFI Santhià",
    "lon": 8.18566,
    "lat": 45.36553,
    "tension_kv": 132
  },
  {
    "nom": "RFI Mortara",
    "lon": 8.73123,
    "lat": 45.25666,
    "tension_kv": 132
  },
  {
    "nom": "San Rocco",
    "lon": 7.51487,
    "lat": 44.35888,
    "tension_kv": 132
  },
  {
    "nom": "RFI Ronco Scrivia",
    "lon": 8.94623,
    "lat": 44.61726,
    "tension_kv": 132
  },
  {
    "nom": "Fincantieri Riva Trigoso",
    "lon": 9.43111,
    "lat": 44.25926,
    "tension_kv": 132
  },
  {
    "nom": "Arinox",
    "lon": 9.42707,
    "lat": 44.26328,
    "tension_kv": 132
  },
  {
    "nom": "RFI Sestri Levante",
    "lon": 9.40065,
    "lat": 44.27559,
    "tension_kv": 70
  },
  {
    "nom": "Sestri Levante",
    "lon": 9.42106,
    "lat": 44.27858,
    "tension_kv": 132
  },
  {
    "nom": "RFI Bricherasio",
    "lon": 7.30979,
    "lat": 44.82664,
    "tension_kv": 132
  },
  {
    "nom": "Chiomonte",
    "lon": 6.97993,
    "lat": 45.12164,
    "tension_kv": 70
  },
  {
    "nom": "Sanfront centrale",
    "lon": 7.32372,
    "lat": 44.65195,
    "tension_kv": 132
  },
  {
    "nom": "Novel",
    "lon": 8.65061,
    "lat": 45.45717,
    "tension_kv": 132
  },
  {
    "nom": "Edison Novara",
    "lon": 8.64728,
    "lat": 45.45611,
    "tension_kv": 132
  },
  {
    "nom": "RFI Trofarello",
    "lon": 7.73754,
    "lat": 44.97833,
    "tension_kv": 132
  },
  {
    "nom": "Trofarello",
    "lon": 7.73758,
    "lat": 44.9775,
    "tension_kv": 132
  },
  {
    "nom": "Ilte Moncalieri",
    "lon": 7.71973,
    "lat": 44.97509,
    "tension_kv": 132
  },
  {
    "nom": "Piossasco CP",
    "lon": 7.44488,
    "lat": 44.97154,
    "tension_kv": 132
  },
  {
    "nom": "RFI Terralba",
    "lon": 8.9641,
    "lat": 44.40633,
    "tension_kv": 132
  },
  {
    "nom": "RFI Arma Taggia",
    "lon": 7.85849,
    "lat": 43.84584,
    "tension_kv": 132
  },
  {
    "nom": "RFI Migliarina",
    "lon": 9.83189,
    "lat": 44.11521,
    "tension_kv": 132
  },
  {
    "nom": "Termomeccanica",
    "lon": 9.85275,
    "lat": 44.11425,
    "tension_kv": 132
  },
  {
    "nom": "Lancia Verrone",
    "lon": 8.12195,
    "lat": 45.48188,
    "tension_kv": 132
  },
  {
    "nom": "San Colombano",
    "lon": 9.31494,
    "lat": 44.37007,
    "tension_kv": 220
  },
  {
    "nom": "FS San Colombano",
    "lon": 9.31366,
    "lat": 44.36996,
    "tension_kv": 132
  },
  {
    "nom": "Camporosso",
    "lon": 7.62989,
    "lat": 43.82799,
    "tension_kv": 220
  },
  {
    "nom": "FS Ventimiglia",
    "lon": 7.5959,
    "lat": 43.79566,
    "tension_kv": 132
  },
  {
    "nom": "Altare",
    "lon": 8.32642,
    "lat": 44.34092,
    "tension_kv": 132
  },
  {
    "nom": "Riva Acciaio",
    "lon": 7.94305,
    "lat": 44.38668,
    "tension_kv": 132
  },
  {
    "nom": "Sacal",
    "lon": 8.22705,
    "lat": 45.43136,
    "tension_kv": 132
  },
  {
    "nom": "SKF Airasca",
    "lon": 7.4671,
    "lat": 44.91822,
    "tension_kv": 132
  },
  {
    "nom": "Tekfor",
    "lon": 7.42824,
    "lat": 45.08726,
    "tension_kv": 132
  },
  {
    "nom": "Avigliana",
    "lon": 7.42883,
    "lat": 45.08737,
    "tension_kv": 132
  },
  {
    "nom": "Lucchini",
    "lon": 7.31806,
    "lat": 45.11126,
    "tension_kv": 132
  },
  {
    "nom": "Vado CP",
    "lon": 8.42181,
    "lat": 44.26599,
    "tension_kv": 132
  },
  {
    "nom": "Vetrotex",
    "lon": 8.42568,
    "lat": 44.2644,
    "tension_kv": 132
  },
  {
    "nom": "Vado Stazione",
    "lon": 8.42969,
    "lat": 44.2771,
    "tension_kv": 220
  },
  {
    "nom": "Vado Termica",
    "lon": 8.42839,
    "lat": 44.27612,
    "tension_kv": 380
  },
  {
    "nom": "Aamaie San Remo",
    "lon": 7.75972,
    "lat": 43.8288,
    "tension_kv": 132
  },
  {
    "nom": "Alessio Tubi",
    "lon": 7.664,
    "lat": 44.96157,
    "tension_kv": 132
  },
  {
    "nom": "Alba Power",
    "lon": 8.026,
    "lat": 44.70343,
    "tension_kv": 132
  },
  {
    "nom": "Ferrero Utente",
    "lon": 8.01985,
    "lat": 44.70294,
    "tension_kv": 132
  },
  {
    "nom": "OLON",
    "lon": 7.77138,
    "lat": 45.14513,
    "tension_kv": 132
  },
  {
    "nom": "Arsenale Militare",
    "lon": 9.81207,
    "lat": 44.0986,
    "tension_kv": 132
  },
  {
    "nom": "Robilante",
    "lon": 7.50856,
    "lat": 44.30014,
    "tension_kv": 132
  },
  {
    "nom": "Volpiano",
    "lon": 7.79785,
    "lat": 45.19563,
    "tension_kv": 132
  },
  {
    "nom": "Fervento",
    "lon": 8.07604,
    "lat": 45.84245,
    "tension_kv": 70
  },
  {
    "nom": "Fiat Iveco Torino",
    "lon": 7.71666,
    "lat": 45.10767,
    "tension_kv": 132
  },
  {
    "nom": "Stura",
    "lon": 7.71009,
    "lat": 45.10244,
    "tension_kv": 220
  },
  {
    "nom": "IML",
    "lon": 9.47103,
    "lat": 44.27959,
    "tension_kv": 132
  },
  {
    "nom": "Essex Italia",
    "lon": 8.40343,
    "lat": 44.90468,
    "tension_kv": 132
  },
  {
    "nom": "ILVA",
    "lon": 7.68885,
    "lat": 44.78978,
    "tension_kv": 132
  },
  {
    "nom": "Kimberly Romagnano",
    "lon": 8.39867,
    "lat": 45.61688,
    "tension_kv": 132
  },
  {
    "nom": "Michelin Stura",
    "lon": 7.71811,
    "lat": 45.11513,
    "tension_kv": 132
  },
  {
    "nom": "Miroglio Saluzzo",
    "lon": 7.50613,
    "lat": 44.64194,
    "tension_kv": 132
  },
  {
    "nom": "Miroglio Alba",
    "lon": 8.02905,
    "lat": 44.71734,
    "tension_kv": 132
  },
  {
    "nom": "Nestlè",
    "lon": 7.53059,
    "lat": 44.75663,
    "tension_kv": 132
  },
  {
    "nom": "Pirelli Livorno Ferraris",
    "lon": 8.06688,
    "lat": 45.29341,
    "tension_kv": 132
  },
  {
    "nom": "Sondel Settimo Torinese",
    "lon": 7.73734,
    "lat": 45.12625,
    "tension_kv": 220
  },
  {
    "nom": "Praoil Panigaglia",
    "lon": 9.82897,
    "lat": 44.07588,
    "tension_kv": 132
  },
  {
    "nom": "Praoil Fon",
    "lon": 8.82035,
    "lat": 44.43698,
    "tension_kv": 132
  },
  {
    "nom": "PI Villastellone",
    "lon": 7.74677,
    "lat": 44.91229,
    "tension_kv": 132
  },
  {
    "nom": "Acciaierie Beltrame San Giorgio",
    "lon": 7.20249,
    "lat": 45.13225,
    "tension_kv": 132
  },
  {
    "nom": "Acceglio Carico",
    "lon": 7.01582,
    "lat": 44.47472,
    "tension_kv": 132
  },
  {
    "nom": "Agip Robassomero",
    "lon": 7.57427,
    "lat": 45.20259,
    "tension_kv": 132
  },
  {
    "nom": "Andonno Centrale",
    "lon": 7.44543,
    "lat": 44.29469,
    "tension_kv": 132
  },
  {
    "nom": "Andonno CP",
    "lon": 7.44476,
    "lat": 44.29428,
    "tension_kv": 132
  },
  {
    "nom": "L'Ardoise",
    "lon": 4.70325,
    "lat": 44.08636,
    "tension_kv": 225
  },
  {
    "nom": "Keller-Leleux",
    "lon": 4.6946,
    "lat": 44.08933,
    "tension_kv": 63
  },
  {
    "nom": "Ahlstrom Mathi",
    "lon": 7.53556,
    "lat": 45.25219,
    "tension_kv": 132
  },
  {
    "nom": "Balangero",
    "lon": 7.50351,
    "lat": 45.27643,
    "tension_kv": 132
  },
  {
    "nom": "Arona",
    "lon": 8.54426,
    "lat": 45.75582,
    "tension_kv": 132
  },
  {
    "nom": "Annovati Frossasco",
    "lon": 7.37512,
    "lat": 44.92704,
    "tension_kv": 132
  },
  {
    "nom": "Agip Trecate",
    "lon": 8.77774,
    "lat": 45.4354,
    "tension_kv": 132
  },
  {
    "nom": "Bemberg Gozzano",
    "lon": 8.42668,
    "lat": 45.75266,
    "tension_kv": 132
  },
  {
    "nom": "Borgaro",
    "lon": 7.67643,
    "lat": 45.15088,
    "tension_kv": 132
  },
  {
    "nom": "Borgoticino",
    "lon": 8.60979,
    "lat": 45.69207,
    "tension_kv": 132
  },
  {
    "nom": "Acea Electrabel",
    "lon": 7.74999,
    "lat": 45.16358,
    "tension_kv": 380
  },
  {
    "nom": "Acetati Verbania",
    "lon": 8.56018,
    "lat": 45.93481,
    "tension_kv": 132
  },
  {
    "nom": "Teksid Carmagnola",
    "lon": 7.73772,
    "lat": 44.85948,
    "tension_kv": 220
  },
  {
    "nom": "Carmagnola",
    "lon": 7.7078,
    "lat": 44.85447,
    "tension_kv": 132
  },
  {
    "nom": "Cerreto Castello",
    "lon": 8.15556,
    "lat": 45.56119,
    "tension_kv": 132
  },
  {
    "nom": "Verbania",
    "lon": 8.55843,
    "lat": 45.94006,
    "tension_kv": 132
  },
  {
    "nom": "Italpet Verbania",
    "lon": 8.56065,
    "lat": 45.93472,
    "tension_kv": 132
  },
  {
    "nom": "Omegna",
    "lon": 8.41453,
    "lat": 45.89013,
    "tension_kv": 132
  },
  {
    "nom": "Bistagno",
    "lon": 8.38105,
    "lat": 44.65691,
    "tension_kv": 220
  },
  {
    "nom": "Acqui",
    "lon": 8.46122,
    "lat": 44.67076,
    "tension_kv": 132
  },
  {
    "nom": "",
    "lon": 8.05072,
    "lat": 45.19875,
    "tension_kv": 220
  },
  {
    "nom": "Livorno Ferraris centrale",
    "lon": 8.19305,
    "lat": 45.23873,
    "tension_kv": 380
  },
  {
    "nom": "Santhià",
    "lon": 8.17629,
    "lat": 45.3719,
    "tension_kv": 132
  },
  {
    "nom": "Livorno Ferraris",
    "lon": 8.06985,
    "lat": 45.28273,
    "tension_kv": 132
  },
  {
    "nom": "Bra",
    "lon": 7.85505,
    "lat": 44.68566,
    "tension_kv": 132
  },
  {
    "nom": "Cavour",
    "lon": 7.35314,
    "lat": 44.76088,
    "tension_kv": 132
  },
  {
    "nom": "Carignano",
    "lon": 7.67877,
    "lat": 44.9054,
    "tension_kv": 132
  },
  {
    "nom": "San Gillio",
    "lon": 7.50495,
    "lat": 45.12387,
    "tension_kv": 132
  },
  {
    "nom": "Virle",
    "lon": 7.58146,
    "lat": 44.84901,
    "tension_kv": 132
  },
  {
    "nom": "Vinovo",
    "lon": 7.64951,
    "lat": 44.95086,
    "tension_kv": 132
  },
  {
    "nom": "Comital",
    "lon": 7.79544,
    "lat": 45.19257,
    "tension_kv": 132
  },
  {
    "nom": "Valpone",
    "lon": 8.01764,
    "lat": 44.80145,
    "tension_kv": 132
  },
  {
    "nom": "Santa Vittoria",
    "lon": 7.95273,
    "lat": 44.69612,
    "tension_kv": 132
  },
  {
    "nom": "Racconigi",
    "lon": 7.68768,
    "lat": 44.76533,
    "tension_kv": 132
  },
  {
    "nom": "Pontecurone",
    "lon": 8.92883,
    "lat": 44.96376,
    "tension_kv": 132
  },
  {
    "nom": "Châteauneuf-du Rhône",
    "lon": 4.70906,
    "lat": 44.49537,
    "tension_kv": 225
  },
  {
    "nom": "Quadrivio",
    "lon": 8.88809,
    "lat": 44.42507,
    "tension_kv": 132
  },
  {
    "nom": "Campi",
    "lon": 8.88176,
    "lat": 44.41923,
    "tension_kv": 132
  },
  {
    "nom": "Canevari",
    "lon": 8.95207,
    "lat": 44.40987,
    "tension_kv": 132
  },
  {
    "nom": "Genova Termica",
    "lon": 8.90404,
    "lat": 44.4036,
    "tension_kv": 132
  },
  {
    "nom": "Molassana",
    "lon": 8.9758,
    "lat": 44.4504,
    "tension_kv": 132
  },
  {
    "nom": "Entracque",
    "lon": 7.39162,
    "lat": 44.22848,
    "tension_kv": 380
  },
  {
    "nom": "Fedio",
    "lon": 7.26679,
    "lat": 44.32941,
    "tension_kv": 132
  },
  {
    "nom": "San Giacomo",
    "lon": 7.20079,
    "lat": 44.3458,
    "tension_kv": 132
  },
  {
    "nom": "Demonte",
    "lon": 7.27151,
    "lat": 44.31469,
    "tension_kv": 132
  },
  {
    "nom": "Demonte TR1",
    "lon": 7.27147,
    "lat": 44.3144,
    "tension_kv": 132
  },
  {
    "nom": "Chiusa Pesio",
    "lon": 7.68158,
    "lat": 44.35895,
    "tension_kv": 132
  },
  {
    "nom": "Ceva",
    "lon": 8.01911,
    "lat": 44.39089,
    "tension_kv": 132
  },
  {
    "nom": "Dronero Centrale",
    "lon": 7.33863,
    "lat": 44.46181,
    "tension_kv": 132
  },
  {
    "nom": "Dronero CP",
    "lon": 7.33931,
    "lat": 44.46381,
    "tension_kv": 132
  },
  {
    "nom": "SSE Fossano",
    "lon": 7.71509,
    "lat": 44.54777,
    "tension_kv": 66
  },
  {
    "nom": "IC Saint Gobain",
    "lon": 7.62276,
    "lat": 44.64476,
    "tension_kv": 132
  },
  {
    "nom": "Saint Gobain",
    "lon": 7.62227,
    "lat": 44.64476,
    "tension_kv": 132
  },
  {
    "nom": "Italcementi Roccavione",
    "lon": 7.4861,
    "lat": 44.32234,
    "tension_kv": 132
  },
  {
    "nom": "Michelin Fossano",
    "lon": 7.69638,
    "lat": 44.56764,
    "tension_kv": 132
  },
  {
    "nom": "Pietraporzio",
    "lon": 7.031,
    "lat": 44.34411,
    "tension_kv": 132
  },
  {
    "nom": "Ponte Marmora",
    "lon": 7.09265,
    "lat": 44.48899,
    "tension_kv": 132
  },
  {
    "nom": "Ponte Marmora CP",
    "lon": 7.09241,
    "lat": 44.489,
    "tension_kv": 132
  },
  {
    "nom": "Buzzi Unicem",
    "lon": 7.50703,
    "lat": 44.30029,
    "tension_kv": 132
  },
  {
    "nom": "Elyo Michelin Cuneo",
    "lon": 7.56722,
    "lat": 44.4371,
    "tension_kv": 132
  },
  {
    "nom": "Sampeyre",
    "lon": 7.19498,
    "lat": 44.57459,
    "tension_kv": 132
  },
  {
    "nom": "Saluzzo",
    "lon": 7.4933,
    "lat": 44.63204,
    "tension_kv": 132
  },
  {
    "nom": "Savigliano",
    "lon": 7.6506,
    "lat": 44.66143,
    "tension_kv": 132
  },
  {
    "nom": "Vinadio Centrale",
    "lon": 7.20016,
    "lat": 44.30494,
    "tension_kv": 132
  },
  {
    "nom": "Cappellazzo",
    "lon": 7.77397,
    "lat": 44.64448,
    "tension_kv": 132
  },
  {
    "nom": "Garessio",
    "lon": 8.01979,
    "lat": 44.20502,
    "tension_kv": 132
  },
  {
    "nom": "Isorella",
    "lon": 7.86992,
    "lat": 44.63919,
    "tension_kv": 132
  },
  {
    "nom": "la Feuillane",
    "lon": 4.90611,
    "lat": 43.45483,
    "tension_kv": 400
  },
  {
    "nom": "",
    "lon": 4.84923,
    "lat": 43.45445,
    "tension_kv": 63
  },
  {
    "nom": "Airasca",
    "lon": 7.47846,
    "lat": 44.92009,
    "tension_kv": 132
  },
  {
    "nom": "Biandrate",
    "lon": 8.46578,
    "lat": 45.44718,
    "tension_kv": 132
  },
  {
    "nom": "Candiolo",
    "lon": 7.56436,
    "lat": 44.95245,
    "tension_kv": 132
  },
  {
    "nom": "Front",
    "lon": 7.66724,
    "lat": 45.29284,
    "tension_kv": 132
  },
  {
    "nom": "",
    "lon": 8.37572,
    "lat": 45.60375,
    "tension_kv": 132
  },
  {
    "nom": "Luserna",
    "lon": 7.23816,
    "lat": 44.8136,
    "tension_kv": 132
  },
  {
    "nom": "Paracca",
    "lon": 7.55455,
    "lat": 45.06361,
    "tension_kv": 132
  },
  {
    "nom": "Sommariva",
    "lon": 7.7916,
    "lat": 44.77681,
    "tension_kv": 132
  },
  {
    "nom": "Pianezza",
    "lon": 7.57087,
    "lat": 45.09808,
    "tension_kv": 220
  },
  {
    "nom": "Metro",
    "lon": 7.5836,
    "lat": 45.08684,
    "tension_kv": 132
  },
  {
    "nom": "Consegna RFI",
    "lon": 7.56836,
    "lat": 45.08066,
    "tension_kv": 132
  },
  {
    "nom": "Biella Nord",
    "lon": 8.06801,
    "lat": 45.58924,
    "tension_kv": 132
  },
  {
    "nom": "Cartiera Ermolli",
    "lon": 8.25714,
    "lat": 45.68751,
    "tension_kv": 132
  },
  {
    "nom": "Ceat Settimo Torinese",
    "lon": 7.79356,
    "lat": 45.16058,
    "tension_kv": 132
  },
  {
    "nom": "Cesana Torinese",
    "lon": 6.80289,
    "lat": 44.94789,
    "tension_kv": 132
  },
  {
    "nom": "Pragelato",
    "lon": 6.9474,
    "lat": 45.02038,
    "tension_kv": 132
  },
  {
    "nom": "Cressa",
    "lon": 8.51609,
    "lat": 45.63306,
    "tension_kv": 132
  },
  {
    "nom": "Trecate",
    "lon": 8.75706,
    "lat": 45.42436,
    "tension_kv": 132
  },
  {
    "nom": "Cossato",
    "lon": 8.18624,
    "lat": 45.5886,
    "tension_kv": 132
  },
  {
    "nom": "Fiat Mirafiori Torino",
    "lon": 7.62304,
    "lat": 45.02859,
    "tension_kv": 220
  },
  {
    "nom": "Fiat Rivalta",
    "lon": 7.50601,
    "lat": 44.99389,
    "tension_kv": 132
  },
  {
    "nom": "Fucine",
    "lon": 7.36569,
    "lat": 45.23134,
    "tension_kv": 132
  },
  {
    "nom": "Funghera",
    "lon": 7.45263,
    "lat": 45.26964,
    "tension_kv": 132
  },
  {
    "nom": "Galliate",
    "lon": 8.70382,
    "lat": 45.47425,
    "tension_kv": 132
  },
  {
    "nom": "",
    "lon": 7.36289,
    "lat": 45.04985,
    "tension_kv": 132
  },
  {
    "nom": "Grugliasco",
    "lon": 7.58312,
    "lat": 45.04329,
    "tension_kv": 220
  },
  {
    "nom": "Borgomanero Nord",
    "lon": 8.44726,
    "lat": 45.71961,
    "tension_kv": 132
  },
  {
    "nom": "Chivasso CP",
    "lon": 7.89235,
    "lat": 45.18484,
    "tension_kv": 132
  },
  {
    "nom": "Laboratori Cesi Chivasso",
    "lon": 7.9361,
    "lat": 45.23578,
    "tension_kv": 380
  },
  {
    "nom": "Lemie",
    "lon": 7.30111,
    "lat": 45.22618,
    "tension_kv": 132
  },
  {
    "nom": "Levanna",
    "lon": 7.65359,
    "lat": 45.08354,
    "tension_kv": 220
  },
  {
    "nom": "Lucento",
    "lon": 7.62987,
    "lat": 45.10794,
    "tension_kv": 132
  },
  {
    "nom": "Leinì",
    "lon": 7.72569,
    "lat": 45.20641,
    "tension_kv": 380
  },
  {
    "nom": "Salvemini",
    "lon": 7.62726,
    "lat": 45.04212,
    "tension_kv": 220
  },
  {
    "nom": "",
    "lon": 5.73665,
    "lat": 45.08481,
    "tension_kv": 225
  },
  {
    "nom": "Darse",
    "lon": 4.84746,
    "lat": 43.42834,
    "tension_kv": 225
  },
  {
    "nom": "",
    "lon": 4.83308,
    "lat": 43.43578,
    "tension_kv": 225
  },
  {
    "nom": "",
    "lon": 4.84988,
    "lat": 43.44302,
    "tension_kv": 225
  },
  {
    "nom": "Balzola CP",
    "lon": 8.42805,
    "lat": 45.18455,
    "tension_kv": 132
  },
  {
    "nom": "",
    "lon": 6.07131,
    "lat": 45.08716,
    "tension_kv": 63
  },
  {
    "nom": "Chivasso Termica 380kV",
    "lon": 7.90466,
    "lat": 45.18509,
    "tension_kv": 380
  },
  {
    "nom": "Alpiq Centrale Termica Vercelli",
    "lon": 8.40978,
    "lat": 45.29712,
    "tension_kv": 132
  },
  {
    "nom": "Novara Ovest",
    "lon": 8.57871,
    "lat": 45.45337,
    "tension_kv": 132
  },
  {
    "nom": "Europa Metalli",
    "lon": 8.84755,
    "lat": 44.75539,
    "tension_kv": 132
  },
  {
    "nom": "Perreres CP",
    "lon": 7.61635,
    "lat": 45.90709,
    "tension_kv": 132
  },
  {
    "nom": "Sanfront CP",
    "lon": 7.32344,
    "lat": 44.65253,
    "tension_kv": 132
  },
  {
    "nom": "Cementilce IC",
    "lon": 8.29902,
    "lat": 44.36922,
    "tension_kv": 132
  },
  {
    "nom": "Ferrania Cairo Montenotte",
    "lon": 8.31488,
    "lat": 44.35221,
    "tension_kv": 132
  },
  {
    "nom": "Finale Ligure",
    "lon": 8.31885,
    "lat": 44.17799,
    "tension_kv": 132
  },
  {
    "nom": "Sottostazione elettrica Savona",
    "lon": 8.47197,
    "lat": 44.32072,
    "tension_kv": 70
  },
  {
    "nom": "IC Vetri Dego",
    "lon": 8.30685,
    "lat": 44.4384,
    "tension_kv": 132
  },
  {
    "nom": "Vetri Dego",
    "lon": 8.30655,
    "lat": 44.43862,
    "tension_kv": 132
  },
  {
    "nom": "Pietra Ligure",
    "lon": 8.2797,
    "lat": 44.16297,
    "tension_kv": 132
  },
  {
    "nom": "Sarpom Quiliano",
    "lon": 8.42068,
    "lat": 44.2916,
    "tension_kv": 132
  },
  {
    "nom": "Savona T1 e T2",
    "lon": 8.46684,
    "lat": 44.3192,
    "tension_kv": 132
  },
  {
    "nom": "Rebocco",
    "lon": 9.80114,
    "lat": 44.1088,
    "tension_kv": 132
  },
  {
    "nom": "La Pianta",
    "lon": 9.85133,
    "lat": 44.11549,
    "tension_kv": 132
  },
  {
    "nom": "La Spezia",
    "lon": 9.88404,
    "lat": 44.10695,
    "tension_kv": 380
  },
  {
    "nom": "Campochiesa",
    "lon": 8.17752,
    "lat": 44.07473,
    "tension_kv": 220
  },
  {
    "nom": "Albenga",
    "lon": 8.20923,
    "lat": 44.05044,
    "tension_kv": 132
  },
  {
    "nom": "Arma di Taggia",
    "lon": 7.85769,
    "lat": 43.83669,
    "tension_kv": 132
  },
  {
    "nom": "Ventimiglia",
    "lon": 7.59313,
    "lat": 43.80791,
    "tension_kv": 132
  },
  {
    "nom": "Genova Grazie",
    "lon": 8.93055,
    "lat": 44.4038,
    "tension_kv": 132
  },
  {
    "nom": "Nervi",
    "lon": 9.03897,
    "lat": 44.39022,
    "tension_kv": 132
  },
  {
    "nom": "Rossiglione",
    "lon": 8.66741,
    "lat": 44.5688,
    "tension_kv": 132
  },
  {
    "nom": "Nava",
    "lon": 7.87176,
    "lat": 44.1051,
    "tension_kv": 132
  },
  {
    "nom": "Genova Acquasanta",
    "lon": 8.77055,
    "lat": 44.46046,
    "tension_kv": 132
  },
  {
    "nom": "Albisola",
    "lon": 8.49702,
    "lat": 44.33717,
    "tension_kv": 132
  },
  {
    "nom": "Alassio",
    "lon": 8.15782,
    "lat": 44.00271,
    "tension_kv": 132
  },
  {
    "nom": "Busalla",
    "lon": 8.95651,
    "lat": 44.56984,
    "tension_kv": 132
  },
  {
    "nom": "Cervo",
    "lon": 8.10608,
    "lat": 43.92923,
    "tension_kv": 132
  },
  {
    "nom": "Imperia",
    "lon": 8.02963,
    "lat": 43.89952,
    "tension_kv": 132
  },
  {
    "nom": "Lavagna",
    "lon": 9.34575,
    "lat": 44.31491,
    "tension_kv": 132
  },
  {
    "nom": "Levanto",
    "lon": 9.6237,
    "lat": 44.17577,
    "tension_kv": 132
  },
  {
    "nom": "Luni",
    "lon": 10.00028,
    "lat": 44.069,
    "tension_kv": 132
  },
  {
    "nom": "Sarzana",
    "lon": 9.95906,
    "lat": 44.11599,
    "tension_kv": 132
  },
  {
    "nom": "Pontevizza",
    "lon": 9.67889,
    "lat": 44.25106,
    "tension_kv": 132
  },
  {
    "nom": "Albiano",
    "lon": 9.91089,
    "lat": 44.17493,
    "tension_kv": 132
  },
  {
    "nom": "Moretta",
    "lon": 7.52559,
    "lat": 44.75267,
    "tension_kv": 132
  },
  {
    "nom": "Pra",
    "lon": 8.77802,
    "lat": 44.43457,
    "tension_kv": 132
  },
  {
    "nom": "Dogali",
    "lon": 8.92796,
    "lat": 44.41799,
    "tension_kv": 132
  },
  {
    "nom": "Pino Torinese",
    "lon": 7.80421,
    "lat": 45.04324,
    "tension_kv": 132
  },
  {
    "nom": "Frabosa",
    "lon": 7.81718,
    "lat": 44.2779,
    "tension_kv": 132
  },
  {
    "nom": "Murialdo",
    "lon": 8.12314,
    "lat": 44.30299,
    "tension_kv": 132
  },
  {
    "nom": "Vesime",
    "lon": 8.24066,
    "lat": 44.63569,
    "tension_kv": 132
  },
  {
    "nom": "IC Borgomanero consegna RFI",
    "lon": 8.47487,
    "lat": 45.69217,
    "tension_kv": 132
  },
  {
    "nom": "San Maurizio d'Opaglio",
    "lon": 8.38478,
    "lat": 45.77301,
    "tension_kv": 132
  },
  {
    "nom": "Sarpom Trecate",
    "lon": 8.78951,
    "lat": 45.43684,
    "tension_kv": 132
  },
  {
    "nom": "Sarpom Produzione Trecate",
    "lon": 8.78949,
    "lat": 45.43698,
    "tension_kv": 132
  },
  {
    "nom": "Borghetto Santo Spirito",
    "lon": 8.22026,
    "lat": 44.1211,
    "tension_kv": 132
  },
  {
    "nom": "Mongrando",
    "lon": 8.01268,
    "lat": 45.53632,
    "tension_kv": 132
  },
  {
    "nom": "Sottostazione di Pray",
    "lon": 8.21326,
    "lat": 45.66774,
    "tension_kv": 132
  },
  {
    "nom": "Varallo",
    "lon": 8.24587,
    "lat": 45.81473,
    "tension_kv": 132
  },
  {
    "nom": "San Damiano Macra",
    "lon": 7.24573,
    "lat": 44.4879,
    "tension_kv": 132
  },
  {
    "nom": "Montestrutto",
    "lon": 7.83958,
    "lat": 45.53616,
    "tension_kv": 132
  },
  {
    "nom": "Mompantero CP",
    "lon": 7.0545,
    "lat": 45.14374,
    "tension_kv": 132
  },
  {
    "nom": "Susa",
    "lon": 7.04176,
    "lat": 45.13892,
    "tension_kv": 132
  },
  {
    "nom": "OMVP Pinasca",
    "lon": 7.23711,
    "lat": 44.9282,
    "tension_kv": 132
  },
  {
    "nom": "Pinerolo Sud",
    "lon": 7.34433,
    "lat": 44.87616,
    "tension_kv": 132
  },
  {
    "nom": "Orbassano",
    "lon": 7.52172,
    "lat": 45.00029,
    "tension_kv": 132
  },
  {
    "nom": "Oulx",
    "lon": 6.83953,
    "lat": 45.03957,
    "tension_kv": 132
  },
  {
    "nom": "",
    "lon": 7.3528,
    "lat": 44.88624,
    "tension_kv": 132
  },
  {
    "nom": "Pinerolo Nord",
    "lon": 7.36411,
    "lat": 44.89625,
    "tension_kv": 132
  },
  {
    "nom": "Serene Rivalta BG Italia",
    "lon": 7.51133,
    "lat": 44.98766,
    "tension_kv": 132
  },
  {
    "nom": "Serene Enel Rivalta",
    "lon": 7.51081,
    "lat": 44.98744,
    "tension_kv": 132
  },
  {
    "nom": "Smat Torino Settmo Torinese",
    "lon": 7.79265,
    "lat": 45.13735,
    "tension_kv": 132
  },
  {
    "nom": "Stella",
    "lon": 7.44291,
    "lat": 44.85205,
    "tension_kv": 132
  },
  {
    "nom": "",
    "lon": 5.78771,
    "lat": 45.20619,
    "tension_kv": 63
  },
  {
    "nom": "Casalpusterlengo",
    "lon": 9.66265,
    "lat": 45.17113,
    "tension_kv": 132
  },
  {
    "nom": "du Confluent",
    "lon": 5.70295,
    "lat": 45.19697,
    "tension_kv": 225
  },
  {
    "nom": "Dogliani",
    "lon": 7.93001,
    "lat": 44.53466,
    "tension_kv": 132
  },
  {
    "nom": "Montanaso",
    "lon": 9.45352,
    "lat": 45.32984,
    "tension_kv": 132
  },
  {
    "nom": "UT Lever",
    "lon": 9.6501,
    "lat": 45.18561,
    "tension_kv": 132
  },
  {
    "nom": "RFI Casalpusterlengo",
    "lon": 9.64499,
    "lat": 45.18652,
    "tension_kv": 132
  },
  {
    "nom": "Villafranca To",
    "lon": 8.03079,
    "lat": 44.9288,
    "tension_kv": 132
  },
  {
    "nom": "Forno Canavese",
    "lon": 7.59067,
    "lat": 45.34775,
    "tension_kv": 132
  },
  {
    "nom": "Tavazzano Est",
    "lon": 9.40998,
    "lat": 45.32931,
    "tension_kv": 220
  },
  {
    "nom": "Sezzadio",
    "lon": 8.5911,
    "lat": 44.76743,
    "tension_kv": 132
  },
  {
    "nom": "Tavazzano Ovest",
    "lon": 9.40186,
    "lat": 45.32479,
    "tension_kv": 220
  },
  {
    "nom": "Masserano",
    "lon": 8.25249,
    "lat": 45.57561,
    "tension_kv": 132
  },
  {
    "nom": "Vallecrosia",
    "lon": 7.64419,
    "lat": 43.79132,
    "tension_kv": 70
  },
  {
    "nom": "Castagnole Lanze",
    "lon": 8.12395,
    "lat": 44.77445,
    "tension_kv": 132
  },
  {
    "nom": "Alba",
    "lon": 8.01583,
    "lat": 44.69508,
    "tension_kv": 132
  },
  {
    "nom": "La Casella",
    "lon": 9.49417,
    "lat": 45.08682,
    "tension_kv": 380
  },
  {
    "nom": "Sassello",
    "lon": 8.49242,
    "lat": 44.4865,
    "tension_kv": 132
  },
  {
    "nom": "",
    "lon": 4.79371,
    "lat": 45.35834,
    "tension_kv": 63
  },
  {
    "nom": "",
    "lon": 3.5126,
    "lat": 45.73867,
    "tension_kv": 63
  },
  {
    "nom": "Drumettaz",
    "lon": 5.91295,
    "lat": 45.64738,
    "tension_kv": 63
  },
  {
    "nom": "Tavel",
    "lon": 4.64277,
    "lat": 44.01496,
    "tension_kv": 400
  },
  {
    "nom": "du Grand Verger",
    "lon": 5.90856,
    "lat": 45.58042,
    "tension_kv": 63
  },
  {
    "nom": "Rognac",
    "lon": 5.21741,
    "lat": 43.50731,
    "tension_kv": 225
  },
  {
    "nom": "UT Agrolinz",
    "lon": 8.8894,
    "lat": 45.61714,
    "tension_kv": 132
  },
  {
    "nom": "Quartaie",
    "lon": 9.2172,
    "lat": 44.41577,
    "tension_kv": 132
  },
  {
    "nom": "Serre-Ponçon",
    "lon": 6.26791,
    "lat": 44.46957,
    "tension_kv": 225
  },
  {
    "nom": "RFI Pieve Fissiraga",
    "lon": 9.45624,
    "lat": 45.2721,
    "tension_kv": 132
  },
  {
    "nom": "Saint-Vincent",
    "lon": 3.21894,
    "lat": 43.36878,
    "tension_kv": 225
  },
  {
    "nom": "des Jonquières",
    "lon": 4.58385,
    "lat": 43.82916,
    "tension_kv": 400
  },
  {
    "nom": "Cusset",
    "lon": 4.91623,
    "lat": 45.765,
    "tension_kv": 225
  },
  {
    "nom": "Poqste électrique de Neulise",
    "lon": 4.17833,
    "lat": 45.9114,
    "tension_kv": 63
  },
  {
    "nom": "Lavéra Martigues",
    "lon": 5.02375,
    "lat": 43.38338,
    "tension_kv": 225
  },
  {
    "nom": "",
    "lon": 7.47768,
    "lat": 43.88275,
    "tension_kv": 63
  },
  {
    "nom": "Caorso",
    "lon": 9.87007,
    "lat": 45.07054,
    "tension_kv": 380
  },
  {
    "nom": "Cremona",
    "lon": 9.95748,
    "lat": 45.1834,
    "tension_kv": 380
  },
  {
    "nom": "Isp Cremona",
    "lon": 9.94198,
    "lat": 45.14805,
    "tension_kv": 380
  },
  {
    "nom": "Cremona Ovest",
    "lon": 9.99502,
    "lat": 45.15563,
    "tension_kv": 132
  },
  {
    "nom": "UT Arvedi Ata",
    "lon": 9.9689,
    "lat": 45.14413,
    "tension_kv": 132
  },
  {
    "nom": "UT Tamoil",
    "lon": 9.98686,
    "lat": 45.14255,
    "tension_kv": 132
  },
  {
    "nom": "Lodi",
    "lon": 9.5013,
    "lat": 45.30147,
    "tension_kv": 132
  },
  {
    "nom": "Tavazzano ST",
    "lon": 9.43016,
    "lat": 45.33209,
    "tension_kv": 220
  },
  {
    "nom": "",
    "lon": 4.97043,
    "lat": 45.82769,
    "tension_kv": 63
  },
  {
    "nom": "",
    "lon": 4.83707,
    "lat": 45.84743,
    "tension_kv": 63
  },
  {
    "nom": "",
    "lon": 4.7618,
    "lat": 45.80655,
    "tension_kv": 63
  },
  {
    "nom": "",
    "lon": 4.80494,
    "lat": 45.74718,
    "tension_kv": 400
  },
  {
    "nom": "Aoste",
    "lon": 5.61134,
    "lat": 45.58388,
    "tension_kv": 225
  },
  {
    "nom": "Givors",
    "lon": 4.78683,
    "lat": 45.57194,
    "tension_kv": 225
  },
  {
    "nom": "Meyzieu",
    "lon": 5.02661,
    "lat": 45.76155,
    "tension_kv": 225
  },
  {
    "nom": "Givors Bans",
    "lon": 4.78235,
    "lat": 45.57568,
    "tension_kv": 225
  },
  {
    "nom": "",
    "lon": 5.38066,
    "lat": 43.35112,
    "tension_kv": 225
  },
  {
    "nom": "d'Enco-de-Botte",
    "lon": 5.48088,
    "lat": 43.32088,
    "tension_kv": 225
  },
  {
    "nom": "",
    "lon": 5.59137,
    "lat": 43.28557,
    "tension_kv": 63
  },
  {
    "nom": "Gardanne",
    "lon": 5.4684,
    "lat": 43.46381,
    "tension_kv": 63
  },
  {
    "nom": "l'Ensoleillé",
    "lon": 5.42727,
    "lat": 43.51818,
    "tension_kv": 63
  },
  {
    "nom": "",
    "lon": 5.3913,
    "lat": 43.4234,
    "tension_kv": 63
  },
  {
    "nom": "",
    "lon": 5.38827,
    "lat": 43.41867,
    "tension_kv": 63
  },
  {
    "nom": "Caillols",
    "lon": 5.45964,
    "lat": 43.29331,
    "tension_kv": 225
  },
  {
    "nom": "",
    "lon": 5.42742,
    "lat": 43.25698,
    "tension_kv": 225
  },
  {
    "nom": "",
    "lon": 5.52932,
    "lat": 43.28499,
    "tension_kv": 63
  },
  {
    "nom": "RFF de La Penne",
    "lon": 5.5078,
    "lat": 43.28577,
    "tension_kv": 63
  },
  {
    "nom": "",
    "lon": 5.58036,
    "lat": 43.25131,
    "tension_kv": 63
  },
  {
    "nom": "Lignat",
    "lon": 3.26568,
    "lat": 45.72016,
    "tension_kv": 225
  },
  {
    "nom": "",
    "lon": 3.48013,
    "lat": 45.95666,
    "tension_kv": 63
  },
  {
    "nom": "Reno de Medici",
    "lon": 8.84317,
    "lat": 45.46594,
    "tension_kv": 132
  },
  {
    "nom": "",
    "lon": 5.26512,
    "lat": 45.84,
    "tension_kv": 63
  },
  {
    "nom": "",
    "lon": 5.32892,
    "lat": 45.95654,
    "tension_kv": 63
  },
  {
    "nom": "Sisco",
    "lon": 9.4784,
    "lat": 42.80693,
    "tension_kv": 90
  },
  {
    "nom": "Ganges",
    "lon": 3.72424,
    "lat": 43.94587,
    "tension_kv": 225
  },
  {
    "nom": "Avèze",
    "lon": 3.59958,
    "lat": 43.97949,
    "tension_kv": 63
  },
  {
    "nom": "",
    "lon": 4.15116,
    "lat": 44.16644,
    "tension_kv": 63
  },
  {
    "nom": "Viradel",
    "lon": 4.1775,
    "lat": 44.13784,
    "tension_kv": 225
  },
  {
    "nom": "Saint-Privat-des-Vieux",
    "lon": 4.13508,
    "lat": 44.13806,
    "tension_kv": 63
  },
  {
    "nom": "Turbigo Superiore",
    "lon": 8.72954,
    "lat": 45.53221,
    "tension_kv": 132
  },
  {
    "nom": "Roquerousse",
    "lon": 5.10082,
    "lat": 43.67351,
    "tension_kv": 225
  },
  {
    "nom": "",
    "lon": 5.51212,
    "lat": 43.70651,
    "tension_kv": 63
  },
  {
    "nom": "Trans en Provence",
    "lon": 6.47523,
    "lat": 43.51013,
    "tension_kv": 400
  },
  {
    "nom": "Cadarache",
    "lon": 5.76758,
    "lat": 43.68279,
    "tension_kv": 63
  },
  {
    "nom": "",
    "lon": 5.82633,
    "lat": 43.72533,
    "tension_kv": 63
  },
  {
    "nom": "",
    "lon": 5.65654,
    "lat": 43.68048,
    "tension_kv": 63
  },
  {
    "nom": "Saint-Tulle",
    "lon": 5.77494,
    "lat": 43.7835,
    "tension_kv": 225
  },
  {
    "nom": "du Biançon",
    "lon": 6.83589,
    "lat": 43.59509,
    "tension_kv": 400
  },
  {
    "nom": "Mede",
    "lon": 8.7422,
    "lat": 45.10076,
    "tension_kv": 132
  },
  {
    "nom": "",
    "lon": 4.70152,
    "lat": 45.23664,
    "tension_kv": 63
  },
  {
    "nom": "Tradate",
    "lon": 8.90614,
    "lat": 45.69548,
    "tension_kv": 132
  },
  {
    "nom": "Vaise",
    "lon": 4.80632,
    "lat": 45.77577,
    "tension_kv": 225
  },
  {
    "nom": "des Espagnoux",
    "lon": 6.13926,
    "lat": 45.88717,
    "tension_kv": 63
  },
  {
    "nom": "Pratclaux",
    "lon": 3.64993,
    "lat": 44.97345,
    "tension_kv": 225
  },
  {
    "nom": "63kV de Pratclaux",
    "lon": 3.65012,
    "lat": 44.97243,
    "tension_kv": 63
  },
  {
    "nom": "Sanssac l'église",
    "lon": 3.8005,
    "lat": 45.04531,
    "tension_kv": 225
  },
  {
    "nom": "",
    "lon": 5.04861,
    "lat": 45.84292,
    "tension_kv": 63
  },
  {
    "nom": "",
    "lon": 5.08741,
    "lat": 45.84881,
    "tension_kv": 63
  },
  {
    "nom": "Vénissieux",
    "lon": 4.90627,
    "lat": 45.71632,
    "tension_kv": 225
  },
  {
    "nom": "Gorla",
    "lon": 8.89601,
    "lat": 45.65542,
    "tension_kv": 150
  },
  {
    "nom": "Alessandria Nord",
    "lon": 8.60946,
    "lat": 44.93945,
    "tension_kv": 132
  },
  {
    "nom": "Sottostazione elettrica di Varazze",
    "lon": 8.57376,
    "lat": 44.36868,
    "tension_kv": 132
  },
  {
    "nom": "Sanremo",
    "lon": 7.77707,
    "lat": 43.82792,
    "tension_kv": 132
  },
  {
    "nom": "Recco",
    "lon": 9.15107,
    "lat": 44.36942,
    "tension_kv": 132
  },
  {
    "nom": "",
    "lon": 4.97779,
    "lat": 45.82363,
    "tension_kv": 63
  },
  {
    "nom": "",
    "lon": 4.78119,
    "lat": 43.94421,
    "tension_kv": 63
  },
  {
    "nom": "",
    "lon": 5.65661,
    "lat": 45.20861,
    "tension_kv": 63
  },
  {
    "nom": "",
    "lon": 6.57935,
    "lat": 44.27395,
    "tension_kv": 63
  },
  {
    "nom": "source de Pont-Évêque",
    "lon": 4.92913,
    "lat": 45.52226,
    "tension_kv": 63
  },
  {
    "nom": "Gampaloup",
    "lon": 4.83339,
    "lat": 45.33527,
    "tension_kv": 225
  },
  {
    "nom": "Montpaon",
    "lon": 3.10824,
    "lat": 43.86623,
    "tension_kv": 63
  },
  {
    "nom": "Champblain",
    "lon": 4.81216,
    "lat": 45.21704,
    "tension_kv": 225
  },
  {
    "nom": "",
    "lon": 4.99443,
    "lat": 45.58153,
    "tension_kv": 63
  },
  {
    "nom": "Fouscais",
    "lon": 3.45753,
    "lat": 43.60649,
    "tension_kv": 225
  },
  {
    "nom": "Lodève",
    "lon": 3.31353,
    "lat": 43.72329,
    "tension_kv": 63
  },
  {
    "nom": "Sangonis",
    "lon": 3.5136,
    "lat": 43.66043,
    "tension_kv": 63
  },
  {
    "nom": "Balaruc",
    "lon": 3.70619,
    "lat": 43.44601,
    "tension_kv": 225
  },
  {
    "nom": "",
    "lon": 3.81054,
    "lat": 43.50916,
    "tension_kv": 63
  },
  {
    "nom": "",
    "lon": 3.75219,
    "lat": 43.43626,
    "tension_kv": 63
  },
  {
    "nom": "La Madeleine",
    "lon": 4.64692,
    "lat": 45.54021,
    "tension_kv": 225
  },
  {
    "nom": "Millery",
    "lon": 4.77144,
    "lat": 45.64837,
    "tension_kv": 63
  },
  {
    "nom": "Castirla",
    "lon": 9.13327,
    "lat": 42.38034,
    "tension_kv": 90
  },
  {
    "nom": "",
    "lon": 3.25131,
    "lat": 43.44307,
    "tension_kv": 63
  },
  {
    "nom": "",
    "lon": 3.23121,
    "lat": 43.33038,
    "tension_kv": 63
  },
  {
    "nom": "",
    "lon": 3.12816,
    "lat": 43.29426,
    "tension_kv": 63
  },
  {
    "nom": "du Soleil",
    "lon": 4.40866,
    "lat": 45.46157,
    "tension_kv": 225
  },
  {
    "nom": "Sous-Station SNCF de Terrenoire",
    "lon": 4.45556,
    "lat": 45.43906,
    "tension_kv": 63
  },
  {
    "nom": "Vias",
    "lon": 3.42743,
    "lat": 43.3169,
    "tension_kv": 63
  },
  {
    "nom": "Jacquard",
    "lon": 4.37599,
    "lat": 45.44389,
    "tension_kv": 225
  },
  {
    "nom": "Firminy-Vert",
    "lon": 4.28467,
    "lat": 45.37906,
    "tension_kv": 63
  },
  {
    "nom": "du Bec",
    "lon": 4.3104,
    "lat": 45.39004,
    "tension_kv": 63
  },
  {
    "nom": "Florensac",
    "lon": 3.48156,
    "lat": 43.38641,
    "tension_kv": 225
  },
  {
    "nom": "",
    "lon": 3.50647,
    "lat": 43.3085,
    "tension_kv": 63
  },
  {
    "nom": "",
    "lon": 3.5685,
    "lat": 43.33581,
    "tension_kv": 63
  },
  {
    "nom": "",
    "lon": 3.60674,
    "lat": 43.46532,
    "tension_kv": 63
  },
  {
    "nom": "",
    "lon": 3.41068,
    "lat": 43.44851,
    "tension_kv": 63
  },
  {
    "nom": "Trevas",
    "lon": 4.16485,
    "lat": 45.2445,
    "tension_kv": 225
  },
  {
    "nom": "",
    "lon": 4.24331,
    "lat": 45.33437,
    "tension_kv": 63
  },
  {
    "nom": "Saint-Just-sur-Loire",
    "lon": 4.26222,
    "lat": 45.49163,
    "tension_kv": 63
  },
  {
    "nom": "Firminy",
    "lon": 4.28768,
    "lat": 45.39378,
    "tension_kv": 225
  },
  {
    "nom": "",
    "lon": 4.28661,
    "lat": 45.39311,
    "tension_kv": 225
  },
  {
    "nom": "d'Unieux",
    "lon": 4.27398,
    "lat": 45.3912,
    "tension_kv": 63
  },
  {
    "nom": "Veauche",
    "lon": 4.30688,
    "lat": 45.5505,
    "tension_kv": 63
  },
  {
    "nom": "La Motte",
    "lon": 4.82737,
    "lat": 43.98921,
    "tension_kv": 225
  },
  {
    "nom": "",
    "lon": 4.22521,
    "lat": 45.23354,
    "tension_kv": 63
  },
  {
    "nom": "",
    "lon": 4.33718,
    "lat": 45.2153,
    "tension_kv": 63
  },
  {
    "nom": "Carcare FS",
    "lon": 8.29254,
    "lat": 44.3609,
    "tension_kv": 66
  },
  {
    "nom": "",
    "lon": 4.14072,
    "lat": 45.30244,
    "tension_kv": 63
  },
  {
    "nom": "",
    "lon": 4.3748,
    "lat": 45.63515,
    "tension_kv": 63
  },
  {
    "nom": "",
    "lon": 6.78181,
    "lat": 45.57894,
    "tension_kv": 63
  },
  {
    "nom": "Feurs",
    "lon": 4.23655,
    "lat": 45.73198,
    "tension_kv": 225
  },
  {
    "nom": "",
    "lon": 4.27366,
    "lat": 45.83306,
    "tension_kv": 63
  },
  {
    "nom": "",
    "lon": 3.49394,
    "lat": 43.51195,
    "tension_kv": 63
  },
  {
    "nom": "",
    "lon": 4.31854,
    "lat": 45.97941,
    "tension_kv": 63
  },
  {
    "nom": "Moingt",
    "lon": 4.08084,
    "lat": 45.59585,
    "tension_kv": 63
  },
  {
    "nom": "Sury-le-Comtal",
    "lon": 4.20129,
    "lat": 45.53997,
    "tension_kv": 63
  },
  {
    "nom": "St-Bonnet-le-Château",
    "lon": 4.07152,
    "lat": 45.42937,
    "tension_kv": 63
  },
  {
    "nom": "Montverdun",
    "lon": 4.05979,
    "lat": 45.71472,
    "tension_kv": 63
  },
  {
    "nom": "Champ-du-Geai",
    "lon": 4.50178,
    "lat": 45.46944,
    "tension_kv": 63
  },
  {
    "nom": "Villerest",
    "lon": 4.05041,
    "lat": 45.98571,
    "tension_kv": 63
  },
  {
    "nom": "Lentigny",
    "lon": 3.9794,
    "lat": 45.98789,
    "tension_kv": 63
  },
  {
    "nom": "du Péage de Vizille",
    "lon": 5.77774,
    "lat": 45.05732,
    "tension_kv": 63
  },
  {
    "nom": "des Farges",
    "lon": 4.55288,
    "lat": 45.49246,
    "tension_kv": 63
  },
  {
    "nom": "l'Horme",
    "lon": 4.55209,
    "lat": 45.49096,
    "tension_kv": 63
  },
  {
    "nom": "",
    "lon": 4.70399,
    "lat": 45.85749,
    "tension_kv": 63
  },
  {
    "nom": "Sinard",
    "lon": 5.66255,
    "lat": 44.95097,
    "tension_kv": 225
  },
  {
    "nom": "",
    "lon": 4.66018,
    "lat": 45.86644,
    "tension_kv": 63
  },
  {
    "nom": "",
    "lon": 4.9399,
    "lat": 45.92364,
    "tension_kv": 63
  },
  {
    "nom": "",
    "lon": 4.75108,
    "lat": 45.92215,
    "tension_kv": 63
  },
  {
    "nom": "",
    "lon": 4.7202,
    "lat": 45.97782,
    "tension_kv": 63
  },
  {
    "nom": "Clermont-l'Hérault",
    "lon": 3.43615,
    "lat": 43.62121,
    "tension_kv": 63
  },
  {
    "nom": "",
    "lon": 3.16936,
    "lat": 43.61333,
    "tension_kv": 63
  },
  {
    "nom": "",
    "lon": 5.21514,
    "lat": 45.90681,
    "tension_kv": 63
  },
  {
    "nom": "",
    "lon": 4.59074,
    "lat": 45.52001,
    "tension_kv": 63
  },
  {
    "nom": "",
    "lon": 4.6356,
    "lat": 45.53791,
    "tension_kv": 63
  },
  {
    "nom": "",
    "lon": 4.63921,
    "lat": 45.53794,
    "tension_kv": 63
  },
  {
    "nom": "Sous-Station de Rive de Gier",
    "lon": 4.59686,
    "lat": 45.52216,
    "tension_kv": 63
  },
  {
    "nom": "RFI Pavia",
    "lon": 9.1515,
    "lat": 45.217,
    "tension_kv": 132
  },
  {
    "nom": "Pavia Torretta",
    "lon": 9.16808,
    "lat": 45.20181,
    "tension_kv": 132
  },
  {
    "nom": "Pavia Est",
    "lon": 9.23021,
    "lat": 45.19885,
    "tension_kv": 132
  },
  {
    "nom": "",
    "lon": 4.79188,
    "lat": 45.59343,
    "tension_kv": 63
  },
  {
    "nom": "Sagone",
    "lon": 8.7038,
    "lat": 42.12343,
    "tension_kv": 90
  },
  {
    "nom": "",
    "lon": 5.05428,
    "lat": 45.32563,
    "tension_kv": 63
  },
  {
    "nom": "",
    "lon": 5.25956,
    "lat": 45.38357,
    "tension_kv": 63
  },
  {
    "nom": "",
    "lon": 5.43197,
    "lat": 45.4286,
    "tension_kv": 63
  },
  {
    "nom": "Source Haute Tension Boulieu Les Annonay",
    "lon": 4.66878,
    "lat": 45.26514,
    "tension_kv": 63
  },
  {
    "nom": "",
    "lon": 4.80615,
    "lat": 45.16798,
    "tension_kv": 63
  },
  {
    "nom": "",
    "lon": 4.82353,
    "lat": 45.10959,
    "tension_kv": 225
  },
  {
    "nom": "",
    "lon": 4.87934,
    "lat": 44.98256,
    "tension_kv": 63
  },
  {
    "nom": "",
    "lon": 4.85941,
    "lat": 44.9343,
    "tension_kv": 63
  },
  {
    "nom": "",
    "lon": 4.85868,
    "lat": 44.91975,
    "tension_kv": 63
  },
  {
    "nom": "Valence",
    "lon": 4.9271,
    "lat": 44.91794,
    "tension_kv": 225
  },
  {
    "nom": "La Vanelle",
    "lon": 4.98324,
    "lat": 45.03516,
    "tension_kv": 63
  },
  {
    "nom": "Curson",
    "lon": 4.93499,
    "lat": 45.05365,
    "tension_kv": 63
  },
  {
    "nom": "",
    "lon": 4.86559,
    "lat": 45.0507,
    "tension_kv": 63
  },
  {
    "nom": "",
    "lon": 4.81792,
    "lat": 45.13455,
    "tension_kv": 63
  },
  {
    "nom": "",
    "lon": 4.81587,
    "lat": 45.19787,
    "tension_kv": 63
  },
  {
    "nom": "",
    "lon": 4.85849,
    "lat": 45.26874,
    "tension_kv": 63
  },
  {
    "nom": "Salaise",
    "lon": 4.80287,
    "lat": 45.35104,
    "tension_kv": 63
  },
  {
    "nom": "",
    "lon": 4.80088,
    "lat": 45.3485,
    "tension_kv": 63
  },
  {
    "nom": "",
    "lon": 4.79936,
    "lat": 45.34929,
    "tension_kv": 63
  },
  {
    "nom": "",
    "lon": 4.69011,
    "lat": 44.51981,
    "tension_kv": 63
  },
  {
    "nom": "",
    "lon": 4.75524,
    "lat": 45.36334,
    "tension_kv": 63
  },
  {
    "nom": "",
    "lon": 4.70284,
    "lat": 45.38375,
    "tension_kv": 63
  },
  {
    "nom": "",
    "lon": 4.77034,
    "lat": 45.43311,
    "tension_kv": 63
  },
  {
    "nom": "",
    "lon": 4.82495,
    "lat": 45.48774,
    "tension_kv": 63
  },
  {
    "nom": "",
    "lon": 4.82804,
    "lat": 45.49242,
    "tension_kv": 63
  },
  {
    "nom": "",
    "lon": 4.82509,
    "lat": 45.49818,
    "tension_kv": 63
  },
  {
    "nom": "",
    "lon": 5.11607,
    "lat": 45.50076,
    "tension_kv": 63
  },
  {
    "nom": "",
    "lon": 5.13793,
    "lat": 45.6306,
    "tension_kv": 63
  },
  {
    "nom": "",
    "lon": 5.12732,
    "lat": 45.64068,
    "tension_kv": 63
  },
  {
    "nom": "",
    "lon": 5.43169,
    "lat": 45.56849,
    "tension_kv": 63
  },
  {
    "nom": "",
    "lon": 5.27728,
    "lat": 45.59437,
    "tension_kv": 63
  },
  {
    "nom": "",
    "lon": 5.21186,
    "lat": 45.62808,
    "tension_kv": 63
  },
  {
    "nom": "RFI Chiari",
    "lon": 9.93447,
    "lat": 45.5415,
    "tension_kv": 132
  },
  {
    "nom": "Treviglio Ovest CS",
    "lon": 9.57718,
    "lat": 45.51579,
    "tension_kv": 132
  },
  {
    "nom": "RFI Treviglio Ovest",
    "lon": 9.57683,
    "lat": 45.51521,
    "tension_kv": 132
  },
  {
    "nom": "",
    "lon": 9.7586,
    "lat": 45.52711,
    "tension_kv": 132
  },
  {
    "nom": "Cassano 220",
    "lon": 9.50913,
    "lat": 45.51061,
    "tension_kv": 220
  },
  {
    "nom": "Cassano",
    "lon": 9.50661,
    "lat": 45.51023,
    "tension_kv": 380
  },
  {
    "nom": "",
    "lon": 5.16738,
    "lat": 45.74745,
    "tension_kv": 63
  },
  {
    "nom": "",
    "lon": 5.18411,
    "lat": 45.74877,
    "tension_kv": 63
  },
  {
    "nom": "",
    "lon": 5.35984,
    "lat": 45.95071,
    "tension_kv": 63
  },
  {
    "nom": "Moirans",
    "lon": 5.55333,
    "lat": 45.32835,
    "tension_kv": 225
  },
  {
    "nom": "",
    "lon": 5.55334,
    "lat": 45.0831,
    "tension_kv": 63
  },
  {
    "nom": "",
    "lon": 5.0881,
    "lat": 45.03886,
    "tension_kv": 63
  },
  {
    "nom": "",
    "lon": 4.60629,
    "lat": 45.82489,
    "tension_kv": 63
  },
  {
    "nom": "",
    "lon": 4.44452,
    "lat": 45.88939,
    "tension_kv": 63
  },
  {
    "nom": "Romanengo",
    "lon": 9.78521,
    "lat": 45.37337,
    "tension_kv": 132
  },
  {
    "nom": "EDF de Montalieu",
    "lon": 5.40252,
    "lat": 45.80741,
    "tension_kv": 63
  },
  {
    "nom": "du Verney",
    "lon": 6.04686,
    "lat": 45.14974,
    "tension_kv": 63
  },
  {
    "nom": "",
    "lon": 4.84508,
    "lat": 45.67733,
    "tension_kv": 63
  },
  {
    "nom": "",
    "lon": 4.85489,
    "lat": 45.68263,
    "tension_kv": 63
  },
  {
    "nom": "d'Oullins",
    "lon": 4.81963,
    "lat": 45.71071,
    "tension_kv": 225
  },
  {
    "nom": "Sous-Station de Sibelin",
    "lon": 4.84436,
    "lat": 45.65271,
    "tension_kv": 63
  },
  {
    "nom": "Lambesc",
    "lon": 5.25362,
    "lat": 43.64818,
    "tension_kv": 63
  },
  {
    "nom": "Arese",
    "lon": 9.05754,
    "lat": 45.5711,
    "tension_kv": 132
  },
  {
    "nom": "",
    "lon": 5.70084,
    "lat": 45.14825,
    "tension_kv": 63
  },
  {
    "nom": "Vaiano Valle",
    "lon": 9.21717,
    "lat": 45.42581,
    "tension_kv": 132
  },
  {
    "nom": "San Donato",
    "lon": 9.25519,
    "lat": 45.41505,
    "tension_kv": 132
  },
  {
    "nom": "",
    "lon": 4.81956,
    "lat": 44.75752,
    "tension_kv": 63
  },
  {
    "nom": "",
    "lon": 4.79337,
    "lat": 44.81629,
    "tension_kv": 63
  },
  {
    "nom": "Avignon",
    "lon": 4.85499,
    "lat": 43.94821,
    "tension_kv": 225
  },
  {
    "nom": "",
    "lon": 4.86543,
    "lat": 43.98483,
    "tension_kv": 63
  },
  {
    "nom": "",
    "lon": 4.84204,
    "lat": 44.13179,
    "tension_kv": 63
  },
  {
    "nom": "Crémade",
    "lon": 4.84098,
    "lat": 44.13299,
    "tension_kv": 63
  },
  {
    "nom": "",
    "lon": 4.69296,
    "lat": 43.82448,
    "tension_kv": 63
  },
  {
    "nom": "Vigentina",
    "lon": 9.20787,
    "lat": 45.44064,
    "tension_kv": 132
  },
  {
    "nom": "Ricevitrice Sud Milano",
    "lon": 9.18663,
    "lat": 45.4359,
    "tension_kv": 220
  },
  {
    "nom": "Chateaurenard",
    "lon": 4.85686,
    "lat": 43.86425,
    "tension_kv": 225
  },
  {
    "nom": "",
    "lon": 4.79173,
    "lat": 43.93693,
    "tension_kv": 63
  },
  {
    "nom": "",
    "lon": 4.89322,
    "lat": 44.05964,
    "tension_kv": 63
  },
  {
    "nom": "",
    "lon": 4.88496,
    "lat": 44.01281,
    "tension_kv": 63
  },
  {
    "nom": "",
    "lon": 4.89806,
    "lat": 43.95968,
    "tension_kv": 63
  },
  {
    "nom": "Logis-Neuf",
    "lon": 4.79135,
    "lat": 44.67462,
    "tension_kv": 225
  },
  {
    "nom": "",
    "lon": 4.69188,
    "lat": 44.53973,
    "tension_kv": 63
  },
  {
    "nom": "",
    "lon": 4.74018,
    "lat": 44.56191,
    "tension_kv": 63
  },
  {
    "nom": "Montjoyer",
    "lon": 4.86343,
    "lat": 44.47599,
    "tension_kv": 63
  },
  {
    "nom": "Phénix",
    "lon": 4.71378,
    "lat": 44.15219,
    "tension_kv": 225
  },
  {
    "nom": "Chabrillan",
    "lon": 4.9459,
    "lat": 44.70021,
    "tension_kv": 225
  },
  {
    "nom": "",
    "lon": 5.00714,
    "lat": 44.72576,
    "tension_kv": 63
  },
  {
    "nom": "Belle-Etoile",
    "lon": 4.84614,
    "lat": 45.69159,
    "tension_kv": 63
  },
  {
    "nom": "",
    "lon": 4.8291,
    "lat": 45.04519,
    "tension_kv": 63
  },
  {
    "nom": "Vinadio CP",
    "lon": 7.19947,
    "lat": 44.30492,
    "tension_kv": 132
  },
  {
    "nom": "Acceglio",
    "lon": 7.01543,
    "lat": 44.47482,
    "tension_kv": 132
  },
  {
    "nom": "Boudeyre",
    "lon": 4.37293,
    "lat": 44.57551,
    "tension_kv": 225
  },
  {
    "nom": "",
    "lon": 3.85306,
    "lat": 44.73783,
    "tension_kv": 63
  },
  {
    "nom": "",
    "lon": 3.88526,
    "lat": 45.01079,
    "tension_kv": 63
  },
  {
    "nom": "",
    "lon": 4.02155,
    "lat": 44.95919,
    "tension_kv": 63
  },
  {
    "nom": "",
    "lon": 3.07394,
    "lat": 44.92203,
    "tension_kv": 225
  },
  {
    "nom": "Grandval",
    "lon": 3.07241,
    "lat": 44.92144,
    "tension_kv": 225
  },
  {
    "nom": "Savignac",
    "lon": 3.03375,
    "lat": 45.10246,
    "tension_kv": 225
  },
  {
    "nom": "",
    "lon": 3.10968,
    "lat": 45.03534,
    "tension_kv": 63
  },
  {
    "nom": "",
    "lon": 3.09293,
    "lat": 45.02906,
    "tension_kv": 63
  },
  {
    "nom": "",
    "lon": 3.96351,
    "lat": 45.05198,
    "tension_kv": 63
  },
  {
    "nom": "",
    "lon": 3.90781,
    "lat": 45.04892,
    "tension_kv": 63
  },
  {
    "nom": "",
    "lon": 4.12556,
    "lat": 45.11787,
    "tension_kv": 63
  },
  {
    "nom": "",
    "lon": 4.2854,
    "lat": 45.07366,
    "tension_kv": 63
  },
  {
    "nom": "",
    "lon": 3.78073,
    "lat": 45.10762,
    "tension_kv": 63
  },
  {
    "nom": "Source Bellevue La Montagne",
    "lon": 3.81502,
    "lat": 45.22031,
    "tension_kv": 63
  },
  {
    "nom": "",
    "lon": 3.7114,
    "lat": 45.96614,
    "tension_kv": 63
  },
  {
    "nom": "",
    "lon": 3.14688,
    "lat": 45.25086,
    "tension_kv": 63
  },
  {
    "nom": "",
    "lon": 3.02702,
    "lat": 45.11033,
    "tension_kv": 63
  },
  {
    "nom": "",
    "lon": 3.49293,
    "lat": 45.20042,
    "tension_kv": 63
  },
  {
    "nom": "",
    "lon": 3.49758,
    "lat": 45.11514,
    "tension_kv": 63
  },
  {
    "nom": "Ancelpont",
    "lon": 3.63516,
    "lat": 44.82181,
    "tension_kv": 63
  },
  {
    "nom": "Margeride",
    "lon": 3.28154,
    "lat": 44.79151,
    "tension_kv": 225
  },
  {
    "nom": "",
    "lon": 3.33999,
    "lat": 45.39477,
    "tension_kv": 63
  },
  {
    "nom": "",
    "lon": 3.25248,
    "lat": 45.56311,
    "tension_kv": 63
  },
  {
    "nom": "d'Enval",
    "lon": 2.99942,
    "lat": 45.76533,
    "tension_kv": 225
  },
  {
    "nom": "Prauliat",
    "lon": 3.09612,
    "lat": 45.74582,
    "tension_kv": 63
  },
  {
    "nom": "",
    "lon": 3.0875,
    "lat": 45.57387,
    "tension_kv": 63
  },
  {
    "nom": "transition de Bastia",
    "lon": 9.43307,
    "lat": 42.66589,
    "tension_kv": 200
  },
  {
    "nom": "Lucciana SACOI Static Inverter Plant",
    "lon": 9.45032,
    "lat": 42.52849,
    "tension_kv": 200
  },
  {
    "nom": "Furiani",
    "lon": 9.42439,
    "lat": 42.66362,
    "tension_kv": 90
  },
  {
    "nom": "Cesano Boscone",
    "lon": 9.10524,
    "lat": 45.44416,
    "tension_kv": 132
  },
  {
    "nom": "Corsico",
    "lon": 9.09062,
    "lat": 45.4275,
    "tension_kv": 132
  },
  {
    "nom": "Assago",
    "lon": 9.13418,
    "lat": 45.39855,
    "tension_kv": 132
  },
  {
    "nom": "Certosa",
    "lon": 9.12371,
    "lat": 45.49968,
    "tension_kv": 220
  },
  {
    "nom": "La Mouche",
    "lon": 4.84431,
    "lat": 45.72014,
    "tension_kv": 225
  },
  {
    "nom": "Volvic",
    "lon": 3.06589,
    "lat": 45.88942,
    "tension_kv": 225
  },
  {
    "nom": "",
    "lon": 3.10947,
    "lat": 45.84406,
    "tension_kv": 63
  },
  {
    "nom": "Ladoux",
    "lon": 3.11846,
    "lat": 45.84409,
    "tension_kv": 63
  },
  {
    "nom": "Flamina",
    "lon": 3.13255,
    "lat": 45.81339,
    "tension_kv": 63
  },
  {
    "nom": "des Gravanches",
    "lon": 3.13457,
    "lat": 45.80489,
    "tension_kv": 63
  },
  {
    "nom": "B20",
    "lon": 3.10735,
    "lat": 45.79615,
    "tension_kv": 63
  },
  {
    "nom": "Riom",
    "lon": 3.12267,
    "lat": 45.88391,
    "tension_kv": 63
  },
  {
    "nom": "Brusuglio",
    "lon": 9.17108,
    "lat": 45.53893,
    "tension_kv": 132
  },
  {
    "nom": "",
    "lon": 9.16883,
    "lat": 45.53584,
    "tension_kv": 220
  },
  {
    "nom": "Inzago",
    "lon": 9.49229,
    "lat": 45.5318,
    "tension_kv": 132
  },
  {
    "nom": "Gorgonzola",
    "lon": 9.41319,
    "lat": 45.52118,
    "tension_kv": 132
  },
  {
    "nom": "",
    "lon": 3.64129,
    "lat": 45.87328,
    "tension_kv": 63
  },
  {
    "nom": "Taglio-Isolaccio",
    "lon": 9.5024,
    "lat": 42.44059,
    "tension_kv": 90
  },
  {
    "nom": "Cervione",
    "lon": 9.54008,
    "lat": 42.31455,
    "tension_kv": 90
  },
  {
    "nom": "Ghisonaccia",
    "lon": 9.37052,
    "lat": 42.06515,
    "tension_kv": 90
  },
  {
    "nom": "Corte",
    "lon": 9.1659,
    "lat": 42.3012,
    "tension_kv": 90
  },
  {
    "nom": "AST",
    "lon": 7.64391,
    "lat": 45.09581,
    "tension_kv": 132
  },
  {
    "nom": "Calvi",
    "lon": 8.74679,
    "lat": 42.56067,
    "tension_kv": 90
  },
  {
    "nom": "L'Île-Rousse",
    "lon": 8.93722,
    "lat": 42.62629,
    "tension_kv": 90
  },
  {
    "nom": "",
    "lon": 4.89969,
    "lat": 43.45335,
    "tension_kv": 225
  },
  {
    "nom": "Corscia",
    "lon": 9.04459,
    "lat": 42.34242,
    "tension_kv": 90
  },
  {
    "nom": "Mougins",
    "lon": 7.00791,
    "lat": 43.58426,
    "tension_kv": 225
  },
  {
    "nom": "",
    "lon": 4.40383,
    "lat": 44.60231,
    "tension_kv": 63
  },
  {
    "nom": "Lunel-Viel",
    "lon": 4.08873,
    "lat": 43.68051,
    "tension_kv": 63
  },
  {
    "nom": "du Rivier",
    "lon": 6.04373,
    "lat": 45.20512,
    "tension_kv": 63
  },
  {
    "nom": "Froges",
    "lon": 5.91722,
    "lat": 45.26589,
    "tension_kv": 225
  },
  {
    "nom": "",
    "lon": 5.71201,
    "lat": 45.05294,
    "tension_kv": 63
  },
  {
    "nom": "",
    "lon": 5.93665,
    "lat": 43.12696,
    "tension_kv": 63
  },
  {
    "nom": "Muggiò",
    "lon": 9.23804,
    "lat": 45.58402,
    "tension_kv": 132
  },
  {
    "nom": "Cadrezzate",
    "lon": 8.63432,
    "lat": 45.80318,
    "tension_kv": 132
  },
  {
    "nom": "",
    "lon": 5.57059,
    "lat": 45.37681,
    "tension_kv": 63
  },
  {
    "nom": "",
    "lon": 5.49091,
    "lat": 45.36462,
    "tension_kv": 63
  },
  {
    "nom": "",
    "lon": 5.66524,
    "lat": 45.23399,
    "tension_kv": 63
  },
  {
    "nom": "",
    "lon": 5.60898,
    "lat": 45.3075,
    "tension_kv": 63
  },
  {
    "nom": "",
    "lon": 5.6279,
    "lat": 45.29322,
    "tension_kv": 63
  },
  {
    "nom": "Aussois",
    "lon": 6.71222,
    "lat": 45.21475,
    "tension_kv": 225
  },
  {
    "nom": "La Marnise",
    "lon": 5.69629,
    "lat": 45.72804,
    "tension_kv": 225
  },
  {
    "nom": "Sisteron",
    "lon": 5.92141,
    "lat": 44.21264,
    "tension_kv": 225
  },
  {
    "nom": "Lingostière",
    "lon": 7.18817,
    "lat": 43.71878,
    "tension_kv": 225
  },
  {
    "nom": "Saint-Auban",
    "lon": 6.00298,
    "lat": 44.07435,
    "tension_kv": 225
  },
  {
    "nom": "",
    "lon": 4.36711,
    "lat": 44.65068,
    "tension_kv": 63
  },
  {
    "nom": "UT RCS",
    "lon": 9.39782,
    "lat": 45.54032,
    "tension_kv": 132
  },
  {
    "nom": "Tore Supra",
    "lon": 5.76646,
    "lat": 43.70169,
    "tension_kv": 400
  },
  {
    "nom": "Vieux-Moulins",
    "lon": 6.37578,
    "lat": 45.2709,
    "tension_kv": 225
  },
  {
    "nom": "La Coche",
    "lon": 6.50997,
    "lat": 45.4964,
    "tension_kv": 400
  },
  {
    "nom": "La Praz Saint-André",
    "lon": 6.58371,
    "lat": 45.20542,
    "tension_kv": 400
  },
  {
    "nom": "La Saussaz II",
    "lon": 6.47644,
    "lat": 45.21021,
    "tension_kv": 225
  },
  {
    "nom": "Vaujany",
    "lon": 6.05071,
    "lat": 45.1455,
    "tension_kv": 400
  },
  {
    "nom": "Favary",
    "lon": 5.61581,
    "lat": 43.47091,
    "tension_kv": 63
  },
  {
    "nom": "",
    "lon": 5.02245,
    "lat": 43.35869,
    "tension_kv": 250
  },
  {
    "nom": "Port-de-Bouc",
    "lon": 4.99192,
    "lat": 43.41537,
    "tension_kv": 225
  },
  {
    "nom": "Saint-Chamas",
    "lon": 5.07125,
    "lat": 43.52763,
    "tension_kv": 225
  },
  {
    "nom": "Roumoules",
    "lon": 6.15758,
    "lat": 43.78901,
    "tension_kv": 225
  },
  {
    "nom": "",
    "lon": 5.20511,
    "lat": 43.71567,
    "tension_kv": 225
  },
  {
    "nom": "Barjac",
    "lon": 4.34337,
    "lat": 44.31478,
    "tension_kv": 225
  },
  {
    "nom": "Cordéac",
    "lon": 5.85785,
    "lat": 44.83368,
    "tension_kv": 225
  },
  {
    "nom": "du Sautet",
    "lon": 5.90856,
    "lat": 44.81632,
    "tension_kv": 225
  },
  {
    "nom": "Pied-de-Borne",
    "lon": 3.98597,
    "lat": 44.47896,
    "tension_kv": 225
  },
  {
    "nom": "Pont-Escoffier",
    "lon": 6.06957,
    "lat": 45.00305,
    "tension_kv": 225
  },
  {
    "nom": "Grand-Coeur",
    "lon": 6.48835,
    "lat": 45.51584,
    "tension_kv": 225
  },
  {
    "nom": "des Brévières",
    "lon": 6.9246,
    "lat": 45.50427,
    "tension_kv": 225
  },
  {
    "nom": "Serrières",
    "lon": 5.84181,
    "lat": 45.88729,
    "tension_kv": 225
  },
  {
    "nom": "Mouissonnes",
    "lon": 5.02286,
    "lat": 43.92152,
    "tension_kv": 225
  },
  {
    "nom": "Vins",
    "lon": 6.11255,
    "lat": 43.43588,
    "tension_kv": 225
  },
  {
    "nom": "Bollène",
    "lon": 4.73526,
    "lat": 44.3034,
    "tension_kv": 225
  },
  {
    "nom": "",
    "lon": 6.22357,
    "lat": 44.66225,
    "tension_kv": 63
  },
  {
    "nom": "",
    "lon": 6.05983,
    "lat": 44.44735,
    "tension_kv": 225
  },
  {
    "nom": "",
    "lon": 6.62812,
    "lat": 44.37955,
    "tension_kv": 63
  },
  {
    "nom": "",
    "lon": 6.32495,
    "lat": 44.37592,
    "tension_kv": 63
  },
  {
    "nom": "Embrun",
    "lon": 6.50571,
    "lat": 44.5646,
    "tension_kv": 63
  },
  {
    "nom": "Briançon",
    "lon": 6.61628,
    "lat": 44.86607,
    "tension_kv": 63
  },
  {
    "nom": "",
    "lon": 6.61571,
    "lat": 44.65782,
    "tension_kv": 63
  },
  {
    "nom": "",
    "lon": 6.68618,
    "lat": 44.58567,
    "tension_kv": 63
  },
  {
    "nom": "Serre-Barbin",
    "lon": 6.54439,
    "lat": 44.95581,
    "tension_kv": 63
  },
  {
    "nom": "L'Argentière la Bessée",
    "lon": 6.55962,
    "lat": 44.79105,
    "tension_kv": 225
  },
  {
    "nom": "",
    "lon": 5.78359,
    "lat": 44.91388,
    "tension_kv": 63
  },
  {
    "nom": "Ital Cornigliano Genova",
    "lon": 8.86309,
    "lat": 44.41276,
    "tension_kv": 220
  },
  {
    "nom": "",
    "lon": 5.91695,
    "lat": 44.34088,
    "tension_kv": 63
  },
  {
    "nom": "",
    "lon": 5.80899,
    "lat": 44.5305,
    "tension_kv": 63
  },
  {
    "nom": "",
    "lon": 5.7613,
    "lat": 44.34476,
    "tension_kv": 63
  },
  {
    "nom": "Centrale hydroélectrique de La Brillanne",
    "lon": 5.86404,
    "lat": 43.87735,
    "tension_kv": 63
  },
  {
    "nom": "",
    "lon": 5.85833,
    "lat": 43.85459,
    "tension_kv": 63
  },
  {
    "nom": "",
    "lon": 5.74194,
    "lat": 44.00229,
    "tension_kv": 63
  },
  {
    "nom": "",
    "lon": 3.27868,
    "lat": 44.79509,
    "tension_kv": 63
  },
  {
    "nom": "",
    "lon": 3.27338,
    "lat": 44.79675,
    "tension_kv": 63
  },
  {
    "nom": "",
    "lon": 5.86771,
    "lat": 44.34553,
    "tension_kv": 63
  },
  {
    "nom": "RFI Collegno",
    "lon": 7.55904,
    "lat": 45.08184,
    "tension_kv": 132
  },
  {
    "nom": "",
    "lon": 5.75657,
    "lat": 43.86696,
    "tension_kv": 63
  },
  {
    "nom": "Coudon",
    "lon": 5.97277,
    "lat": 43.15787,
    "tension_kv": 225
  },
  {
    "nom": "",
    "lon": 5.96375,
    "lat": 43.13129,
    "tension_kv": 63
  },
  {
    "nom": "",
    "lon": 5.97854,
    "lat": 43.38455,
    "tension_kv": 63
  },
  {
    "nom": "",
    "lon": 5.6174,
    "lat": 43.36386,
    "tension_kv": 63
  },
  {
    "nom": "",
    "lon": 5.60241,
    "lat": 43.47814,
    "tension_kv": 225
  },
  {
    "nom": "",
    "lon": 5.35566,
    "lat": 43.54415,
    "tension_kv": 63
  },
  {
    "nom": "Pas-des-Lanciers",
    "lon": 5.25317,
    "lat": 43.41222,
    "tension_kv": 63
  },
  {
    "nom": "Salon-Croix Blanche",
    "lon": 5.11206,
    "lat": 43.63932,
    "tension_kv": 63
  },
  {
    "nom": "",
    "lon": 5.18643,
    "lat": 43.72993,
    "tension_kv": 63
  },
  {
    "nom": "",
    "lon": 5.03636,
    "lat": 43.85053,
    "tension_kv": 63
  },
  {
    "nom": "",
    "lon": 4.96828,
    "lat": 43.9238,
    "tension_kv": 63
  },
  {
    "nom": "",
    "lon": 4.92185,
    "lat": 43.89659,
    "tension_kv": 63
  },
  {
    "nom": "RFF de Chateauneuf",
    "lon": 4.70831,
    "lat": 44.48401,
    "tension_kv": 63
  },
  {
    "nom": "",
    "lon": 4.688,
    "lat": 44.46527,
    "tension_kv": 63
  },
  {
    "nom": "Joncels",
    "lon": 3.19603,
    "lat": 43.73664,
    "tension_kv": 63
  },
  {
    "nom": "Spezia Est",
    "lon": 9.88313,
    "lat": 44.10547,
    "tension_kv": 132
  },
  {
    "nom": "Hydro Elecytrique Clavalitè",
    "lon": 7.50511,
    "lat": 45.73815,
    "tension_kv": 132
  },
  {
    "nom": "d'Arles",
    "lon": 4.64869,
    "lat": 43.6621,
    "tension_kv": 63
  },
  {
    "nom": "Bulciago",
    "lon": 9.29609,
    "lat": 45.74716,
    "tension_kv": 380
  },
  {
    "nom": "DIGNE",
    "lon": 6.2292,
    "lat": 44.09227,
    "tension_kv": 63
  },
  {
    "nom": "Ruffe",
    "lon": 3.17842,
    "lat": 43.68571,
    "tension_kv": 63
  },
  {
    "nom": "",
    "lon": 3.17489,
    "lat": 43.5589,
    "tension_kv": 63
  },
  {
    "nom": "",
    "lon": 3.04325,
    "lat": 43.41957,
    "tension_kv": 63
  },
  {
    "nom": "",
    "lon": 3.0905,
    "lat": 43.43646,
    "tension_kv": 63
  },
  {
    "nom": "Cinisello",
    "lon": 9.22366,
    "lat": 45.56031,
    "tension_kv": 132
  },
  {
    "nom": "",
    "lon": 4.24729,
    "lat": 45.63882,
    "tension_kv": 63
  },
  {
    "nom": "",
    "lon": 6.8539,
    "lat": 44.06724,
    "tension_kv": 63
  },
  {
    "nom": "Pontremoli FS",
    "lon": 9.87367,
    "lat": 44.38025,
    "tension_kv": 132
  },
  {
    "nom": "Borgotaro FS",
    "lon": 9.78207,
    "lat": 44.48728,
    "tension_kv": 132
  },
  {
    "nom": "RFI Pozzuolo",
    "lon": 9.45864,
    "lat": 45.50847,
    "tension_kv": 132
  },
  {
    "nom": "SE Bellcaire",
    "lon": 3.09836,
    "lat": 42.07288,
    "tension_kv": 110
  },
  {
    "nom": "Turbigo",
    "lon": 8.74643,
    "lat": 45.5186,
    "tension_kv": 380
  },
  {
    "nom": "Voghera CP",
    "lon": 8.9989,
    "lat": 44.99516,
    "tension_kv": 132
  },
  {
    "nom": "Alagna",
    "lon": 8.89286,
    "lat": 45.1733,
    "tension_kv": 132
  },
  {
    "nom": "Tavazzano Centrale",
    "lon": 9.43838,
    "lat": 45.33316,
    "tension_kv": 380
  },
  {
    "nom": "RFI Voghera",
    "lon": 9.00944,
    "lat": 44.99922,
    "tension_kv": 70
  },
  {
    "nom": "Carbitalia",
    "lon": 9.4122,
    "lat": 45.82839,
    "tension_kv": 132
  },
  {
    "nom": "RFI Lecco Maggianico",
    "lon": 9.40791,
    "lat": 45.839,
    "tension_kv": 70
  },
  {
    "nom": "RFI Melegnano",
    "lon": 9.32989,
    "lat": 45.34807,
    "tension_kv": 132
  },
  {
    "nom": "FS Seregno",
    "lon": 9.21229,
    "lat": 45.6346,
    "tension_kv": 132
  },
  {
    "nom": "UT Praoil",
    "lon": 8.88397,
    "lat": 45.09456,
    "tension_kv": 132
  },
  {
    "nom": "Agip Sannazzaro",
    "lon": 8.88453,
    "lat": 45.09479,
    "tension_kv": 132
  },
  {
    "nom": "Sannazzaro",
    "lon": 8.88478,
    "lat": 45.09399,
    "tension_kv": 132
  },
  {
    "nom": "Boffalora CS",
    "lon": 8.84583,
    "lat": 45.46625,
    "tension_kv": 132
  },