[{"asset_id": "htb_aura_0001", "nom": "Poste 400kV", "type": "poste_htb", "geometry": {"type": "Point", "coordinates": [4.09546, 44.0358]}, "tension_kv": 400, "puissance_mva": 500, "region": "AuRA"}, {"asset_id": "htb_aura_0002", "nom": "Enedis Le Ronze", "type": "poste_htb", "geometry": {"type": "Point", "coordinates": [4.73814, 45.63857]}, "tension_kv": 400, "puissance_mva": 500, "region": "AuRA"}, {"asset_id": "htb_aura_0003", "nom": "Enedis", "type": "poste_htb", "geometry": {"type": "Point", "coordinates": [4.74871, 45.62781]}, "tension_kv": 400, "puissance_mva": 500, "region": "AuRA"}, {"asset_id": "htb_paca_0004", "nom": "Poste 150kV", "type": "poste_htb", "geometry": {"type": "Point", "coordinates": [7.27865, 44.04386]}, "tension_kv": 150, "puissance_mva": 180, "region": "PACA"}, {"asset_id": "htb_paca_0005", "nom": "Poste 63kV", "type": "poste_htb", "geometry": {"type": "Point", "coordinates": [7.57693, 44.03019]}, "tension_kv": 63, "puissance_mva": 100, "region": "PACA"}, {"asset_id": "htb_aura_0006", "nom": "Poste 63kV", "type": "poste_htb", "geometry": {"type": "Point", "coordinates": [6.93364, 45.4961]}, "tension_kv": 63, "puissance_mva": 100, "region": "AuRA"}, {"asset_id": "htb_aura_0007", "nom": "Enedis Gillardonne", "type": "poste_htb", "geometry": {"type": "Point", "coordinates": [4.75039, 45.62511]}, "tension_kv": 400, "puissance_mva": 500, "region": "AuRA"}, {"asset_id": "htb_aura_0008", "nom": "Enedis LT Domaine de Sourzy", "type": "poste_htb", "geometry": {"type": "Point", "coordinates": [4.75322, 45.62361]}, "tension_kv": 400, "puissance_mva": 500, "region": "AuRA"}, {"asset_id": "htb_aura_0009", "nom": "Enedis Le Muguet", "type": "poste_htb", "geometry": {"type": "Point", "coordinates": [4.75274, 45.6351]}, "tension_kv": 400, "puissance_mva": 500, "region": "AuRA"}, {"asset_id": "htb_aura_0010", "nom": "Enedis Intermarché Grigny", "type": "poste_htb", "geometry": {"type": "Point", "coordinates": [4.78235, 45.60507]}, "tension_kv": 400, "puissance_mva": 500, "region": "AuRA"}, {"asset_id": "htb_aura_0011", "nom": "Marcel Deprez", "type": "poste_htb", "geometry": {"type": "Point", "coordinates": [5.72261, 45.19214]}, "tension_kv": 63, "puissance_mva": 100, "region": "AuRA"}, {"asset_id": "htb_aura_0012", "nom": "Mistral", "type": "poste_htb", "geometry": {"type": "Point", "coordinates": [5.73746, 45.18386]}, "tension_kv": 63, "puissance_mva": 100, "region": "AuRA"}, {"asset_id": "htb_aura_0013", "nom": "Poste 63kV", "type": "poste_htb", "geometry": {"type": "Point", "coordinates": [6.68435, 45.44286]}, "tension_kv": 63, "puissance_mva": 100, "region": "AuRA"}, {"asset_id": "htb_aura_0014", "nom": "Poste 63kV", "type": "poste_htb", "geometry": {"type": "Point", "coordinates": [6.71964, 45.87225]}, "tension_kv": 63, "puissance_mva": 100, "region": "AuRA"}, {"asset_id": "htb_aura_0015", "nom": "Poste 63kV", "type": "poste_htb", "geometry": {"type": "Point", "coordinates": [5.40584, 45.85288]}, "tension_kv": 63, "puissance_mva": 100, "region": "AuRA"}, {"asset_id": "htb_aura_0016", "nom": "Poste 63kV", "type": "poste_htb", "geometry": {"type": "Point", "coordinates": [6.46105, 45.71631]}, "tension_kv": 63, "puissance_mva": 100, "region": "AuRA"}, {"asset_id": "htb_aura_0017", "nom": "Poste 63kV", "type": "poste_htb", "geometry": {"type": "Point", "coordinates": [6.72089, 45.21339]}, "tension_kv": 63, "puissance_mva": 100, "region": "AuRA"}, {"asset_id": "htb_aura_0018", "nom": "Poste 400kV", "type": "poste_htb", "geometry": {"type": "Point", "coordinates": [4.44894, 45.89774]}, "tension_kv": 400, "puissance_mva": 500, "region": "AuRA"}, {"asset_id": "htb_aura_0019", "nom": "Poste 63kV", "type": "poste_htb", "geometry": {"type": "Point", "coordinates": [6.70278, 45.90371]}, "tension_kv": 63, "puissance_mva": 100, "region": "AuRA"}, {"asset_id": "htb_aura_0020", "nom": "Poste 225kV", "type": "poste_htb", "geometry": {"type": "Point", "coordinates": [5.76362, 44.88265]}, "tension_kv": 225, "puissance_mva": 280, "region": "AuRA"}, {"asset_id": "htb_occ_0021", "nom": "Saumade", "type": "poste_htb", "geometry": {"type": "Point", "coordinates": [3.89522, 43.62286]}, "tension_kv": 225, "puissance_mva": 280, "region": "OCC"}, {"asset_id": "htb_aura_0022", "nom": "Mions", "type": "poste_htb", "geometry": {"type": "Point", "coordinates": [4.97538, 45.67426]}, "tension_kv": 400, "puissance_mva": 500, "region": "AuRA"}, {"asset_id": "htb_aura_0023", "nom": "du Chaffard", "type": "poste_htb", "geometry": {"type": "Point", "coordinates": [5.12279, 45.66224]}, "tension_kv": 400, "puissance_mva": 500, "region": "AuRA"}, {"asset_id": "htb_aura_0024", "nom": "La Boisse", "type": "poste_htb", "geometry": {"type": "Point", "coordinates": [5.02347, 45.83832]}, "tension_kv": 400, "puissance_mva": 500, "region": "AuRA"}, {"asset_id": "htb_occ_0025", "nom": "Saint-Christol", "type": "poste_htb", "geometry": {"type": "Point", "coordinates": [4.06967, 43.70432]}, "tension_kv": 225, "puissance_mva": 280, "region": "OCC"}, {"asset_id": "htb_occ_0026", "nom": "Mauguio", "type": "poste_htb", "geometry": {"type": "Point", "coordinates": [4.00347, 43.6262]}, "tension_kv": 63, "puissance_mva": 100, "region": "OCC"}, {"asset_id": "htb_occ_0027", "nom": "Fréjorgues", "type": "poste_htb", "geometry": {"type": "Point", "coordinates": [3.93851, 43.57272]}, "tension_kv": 63, "puissance_mva": 100, "region": "OCC"}, {"asset_id": "htb_occ_0028", "nom": "Castelnau", "type": "poste_htb", "geometry": {"type": "Point", "coordinates": [3.90746, 43.629]}, "tension_kv": 63, "puissance_mva": 100, "region": "OCC"}, {"asset_id": "htb_occ_0029", "nom": "Electrique de VENDARGUES", "type": "poste_htb", "geometry": {"type": "Point", "coordinates": [3.96054, 43.65494]}, "tension_kv": 63, "puissance_mva": 100, "region": "OCC"}, {"asset_id": "htb_occ_0030", "nom": "Montpellier (Saint-Jean-de-Védas)", "type": "poste_htb", "geometry": {"type": "Point", "coordinates": [3.84943, 43.58051]}, "tension_kv": 225, "puissance_mva": 280, "region": "OCC"}, {"asset_id": "htb_occ_0031", "nom": "Tamareau", "type": "poste_htb", "geometry": {"type": "Point", "coordinates": [3.71619, 43.63263]}, "tension_kv": 400, "puissance_mva": 500, "region": "OCC"}, {"asset_id": "htb_occ_0032", "nom": "des Quatre Seigneurs", "type": "poste_htb", "geometry": {"type": "Point", "coordinates": [3.8425, 43.6469]}, "tension_kv": 225, "puissance_mva": 280, "region": "OCC"}, {"asset_id": "htb_paca_0033", "nom": "Réaltor", "type": "poste_htb", "geometry": {"type": "Point", "coordinates": [5.34286, 43.44697]}, "tension_kv": 400, "puissance_mva": 500, "region": "PACA"}, {"asset_id": "htb_paca_0034", "nom": "Cabriès", "type": "poste_htb", "geometry": {"type": "Point", "coordinates": [5.32126, 43.44368]}, "tension_kv": 225, "puissance_mva": 280, "region": "PACA"}, {"asset_id": "htb_paca_0035", "nom": "La Duranne", "type": "poste_htb", "geometry": {"type": "Point", "coordinates": [5.35537, 43.4854]}, "tension_kv": 225, "puissance_mva": 280, "region": "PACA"}, {"asset_id": "htb_paca_0036", "nom": "Septèmes", "type": "poste_htb", "geometry": {"type": "Point", "coordinates": [5.35372, 43.39629]}, "tension_kv": 225, "puissance_mva": 280, "region": "PACA"}, {"asset_id": "htb_paca_0037", "nom": "Salon", "type": "poste_htb", "geometry": {"type": "Point", "coordinates": [5.11578, 43.63244]}, "tension_kv": 225, "puissance_mva": 280, "region": "PACA"}, {"asset_id": "htb_aura_0038", "nom": "Poste 63kV", "type": "poste_htb", "geometry": {"type": "Point", "coordinates": [4.85544, 45.54172]}, "tension_kv": 63, "puissance_mva": 100, "region": "AuRA"}, {"asset_id": "htb_aura_0039", "nom": "Mallifaud", "type": "poste_htb", "geometry": {"type": "Point", "coordinates": [5.72223, 45.18184]}, "tension_kv": 63, "puissance_mva": 100, "region": "AuRA"}, {"asset_id": "htb_aura_0040", "nom": "Eybens", "type": "poste_htb", "geometry": {"type": "Point", "coordinates": [5.75396, 45.15402]}, "tension_kv": 225, "puissance_mva": 280, "region": "AuRA"}, {"asset_id": "htb_paca_0041", "nom": "Poste 63kV", "type": "poste_htb", "geometry": {"type": "Point", "coordinates": [4.76329, 43.42982]}, "tension_kv": 63, "puissance_mva": 100, "region": "PACA"}, {"asset_id": "htb_paca_0042", "nom": "Nîmes-Talabot", "type": "poste_htb", "geometry": {"type": "Point", "coordinates": [4.37151, 43.83636]}, "tension_kv": 225, "puissance_mva": 280, "region": "PACA"}, {"asset_id": "htb_aura_0043", "nom": "la Sarre", "type": "poste_htb", "geometry": {"type": "Point", "coordinates": [3.12046, 45.77117]}, "tension_kv": 225, "puissance_mva": 280, "region": "AuRA"}, {"asset_id": "htb_aura_0044", "nom": "Poste 63kV", "type": "poste_htb", "geometry": {"type": "Point", "coordinates": [6.57074, 45.29865]}, "tension_kv": 63, "puissance_mva": 100, "region": "AuRA"}, {"asset_id": "htb_aura_0045", "nom": "Longefan", "type": "poste_htb", "geometry": {"type": "Point", "coordinates": [6.35812, 45.28417]}, "tension_kv": 225, "puissance_mva": 280, "region": "AuRA"}, {"asset_id": "htb_paca_0046", "nom": "Caderousse", "type": "poste_htb", "geometry": {"type": "Point", "coordinates": [4.72155, 44.09472]}, "tension_kv": 63, "puissance_mva": 100, "region": "PACA"}, {"asset_id": "htb_aura_0047", "nom": "Malherbe", "type": "poste_htb", "geometry": {"type": "Point", "coordinates": [5.72801, 45.16858]}, "tension_kv": 63, "puissance_mva": 100, "region": "AuRA"}, {"asset_id": "htb_aura_0048", "nom": "Vaucanson", "type": "poste_htb", "geometry": {"type": "Point", "coordinates": [5.71108, 45.1719]}, "tension_kv": 63, "puissance_mva": 100, "region": "AuRA"}, {"asset_id": "htb_aura_0049", "nom": "Portique électrique de Beynost", "type": "poste_htb", "geometry": {"type": "Point", "coordinates": [5.01893, 45.836]}, "tension_kv": 225, "puissance_mva": 280, "region": "AuRA"}, {"asset_id": "htb_aura_0050", "nom": "Île Verte", "type": "poste_htb", "geometry": {"type": "Point", "coordinates": [5.74168, 45.19608]}, "tension_kv": 63, "puissance_mva": 100, "region": "AuRA"}, {"asset_id": "htb_aura_0051", "nom": "Bissy", "type": "poste_htb", "geometry": {"type": "Point", "coordinates": [5.90064, 45.59028]}, "tension_kv": 225, "puissance_mva": 280, "region": "AuRA"}, {"asset_id": "htb_aura_0052", "nom": "Poste 63kV", "type": "poste_htb", "geometry": {"type": "Point", "coordinates": [5.90257, 45.58879]}, "tension_kv": 63, "puissance_mva": 100, "region": "AuRA"}, {"asset_id": "htb_aura_0053", "nom": "Poste 63kV", "type": "poste_htb", "geometry": {"type": "Point", "coordinates": [5.88845, 45.5993]}, "tension_kv": 63, "puissance_mva": 100, "region": "AuRA"}, {"asset_id": "htb_aura_0054", "nom": "Poste 63kV", "type": "poste_htb", "geometry": {"type": "Point", "coordinates": [5.9072, 45.581]}, "tension_kv": 63, "puissance_mva": 100, "region": "AuRA"}, {"asset_id": "htb_aura_0055", "nom": "La Bathie", "type": "poste_htb", "geometry": {"type": "Point", "coordinates": [6.44339, 45.6447]}, "tension_kv": 400, "puissance_mva": 500, "region": "AuRA"}, {"asset_id": "htb_aura_0056", "nom": "d'Albertville", "type": "poste_htb", "geometry": {"type": "Point", "coordinates": [6.41817, 45.66189]}, "tension_kv": 400, "puissance_mva": 500, "region": "AuRA"}, {"asset_id": "htb_aura_0057", "nom": "Saint-Amour", "type": "poste_htb", "geometry": {"type": "Point", "coordinates": [4.85043, 45.75534]}, "tension_kv": 225, "puissance_mva": 280, "region": "AuRA"}, {"asset_id": "htb_aura_0058", "nom": "Poste 63kV", "type": "poste_htb", "geometry": {"type": "Point", "coordinates": [4.85073, 45.76991]}, "tension_kv": 63, "puissance_mva": 100, "region": "AuRA"}, {"asset_id": "htb_aura_0059", "nom": "Tasset", "type": "poste_htb", "geometry": {"type": "Point", "coordinates": [6.10268, 45.90913]}, "tension_kv": 63, "puissance_mva": 100, "region": "AuRA"}, {"asset_id": "htb_aura_0060", "nom": "Cran", "type": "poste_htb", "geometry": {"type": "Point", "coordinates": [6.10681, 45.90488]}, "tension_kv": 63, "puissance_mva": 100, "region": "AuRA"}, {"asset_id": "htb_aura_0061", "nom": "ERDF ZI Les Troques", "type": "poste_htb", "geometry": {"type": "Point", "coordinates": [4.7613, 45.69782]}, "tension_kv": 400, "puissance_mva": 500, "region": "AuRA"}, {"asset_id": "htb_aura_0062", "nom": "Cataroux", "type": "poste_htb", "geometry": {"type": "Point", "coordinates": [3.09888, 45.7911]}, "tension_kv": 63, "puissance_mva": 100, "region": "AuRA"}, {"asset_id": "htb_aura_0063", "nom": "Mégève", "type": "poste_htb", "geometry": {"type": "Point", "coordinates": [6.61345, 45.85865]}, "tension_kv": 63, "puissance_mva": 100, "region": "AuRA"}, {"asset_id": "htb_aura_0064", "nom": "Poste 63kV", "type": "poste_htb", "geometry": {"type": "Point", "coordinates": [6.53504, 45.48202]}, "tension_kv": 63, "puissance_mva": 100, "region": "AuRA"}, {"asset_id": "htb_paca_0065", "nom": "Poste 63kV", "type": "poste_htb", "geometry": {"type": "Point", "coordinates": [6.93459, 43.66069]}, "tension_kv": 63, "puissance_mva": 100, "region": "PACA"}, {"asset_id": "htb_paca_0066", "nom": "Sylvabelle", "type": "poste_htb", "geometry": {"type": "Point", "coordinates": [5.37901, 43.28943]}, "tension_kv": 63, "puissance_mva": 100, "region": "PACA"}, {"asset_id": "htb_paca_0067", "nom": "Plan de Grasse", "type": "poste_htb", "geometry": {"type": "Point", "coordinates": [6.94025, 43.65569]}, "tension_kv": 225, "puissance_mva": 280, "region": "PACA"}, {"asset_id": "htb_aura_0068", "nom": "Champagnier", "type": "poste_htb", "geometry": {"type": "Point", "coordinates": [5.70928, 45.10619]}, "tension_kv": 400, "puissance_mva": 500, "region": "AuRA"}, {"asset_id": "htb_aura_0069", "nom": "Champradet", "type": "poste_htb", "geometry": {"type": "Point", "coordinates": [3.05649, 45.78919]}, "tension_kv": 63, "puissance_mva": 100, "region": "AuRA"}, {"asset_id": "htb_aura_0070", "nom": "Croix-de-Neyrat", "type": "poste_htb", "geometry": {"type": "Point", "coordinates": [3.10279, 45.81034]}, "tension_kv": 63, "puissance_mva": 100, "region": "AuRA"}, {"asset_id": "htb_aura_0071", "nom": "Malintrat", "type": "poste_htb", "geometry": {"type": "Point", "coordinates": [3.19549, 45.80915]}, "tension_kv": 225, "puissance_mva": 280, "region": "AuRA"}, {"asset_id": "htb_aura_0072", "nom": "Mézel", "type": "poste_htb", "geometry": {"type": "Point", "coordinates": [3.23703, 45.74568]}, "tension_kv": 63, "puissance_mva": 100, "region": "AuRA"}, {"asset_id": "htb_aura_0073", "nom": "Rulhat", "type": "poste_htb", "geometry": {"type": "Point", "coordinates": [3.27051, 45.81351]}, "tension_kv": 400, "puissance_mva": 500, "region": "AuRA"}, {"asset_id": "htb_aura_0074", "nom": "Culhat", "type": "poste_htb", "geometry": {"type": "Point", "coordinates": [3.35695, 45.86349]}, "tension_kv": 63, "puissance_mva": 100, "region": "AuRA"}, {"asset_id": "htb_aura_0075", "nom": "Poste 63kV", "type": "poste_htb", "geometry": {"type": "Point", "coordinates": [3.75688, 45.37844]}, "tension_kv": 63, "puissance_mva": 100, "region": "AuRA"}, {"asset_id": "htb_aura_0076", "nom": "Station d'Ambert", "type": "poste_htb", "geometry": {"type": "Point", "coordinates": [3.74646, 45.57375]}, "tension_kv": 63, "puissance_mva": 100, "region": "AuRA"}, {"asset_id": "htb_aura_0077", "nom": "d'Issoire", "type": "poste_htb", "geometry": {"type": "Point", "coordinates": [3.2548, 45.55492]}, "tension_kv": 225, "puissance_mva": 280, "region": "AuRA"}, {"asset_id": "htb_aura_0078", "nom": "Poste 63kV", "type": "poste_htb", "geometry": {"type": "Point", "coordinates": [3.52964, 45.85514]}, "tension_kv": 63, "puissance_mva": 100, "region": "AuRA"}, {"asset_id": "htb_aura_0079", "nom": "Poste 63kV", "type": "poste_htb", "geometry": {"type": "Point", "coordinates": [4.84436, 45.7065]}, "tension_kv": 63, "puissance_mva": 100, "region": "AuRA"}, {"asset_id": "htb_paca_0080", "nom": "EDF", "type": "poste_htb", "geometry": {"type": "Point", "coordinates": [4.83881, 44.12875]}, "tension_kv": 63, "puissance_mva": 100, "region": "PACA"}, {"asset_id": "htb_aura_0081", "nom": "Poste 63kV", "type": "poste_htb", "geometry": {"type": "Point", "coordinates": [5.82802, 45.2018]}, "tension_kv": 63, "puissance_mva": 100, "region": "AuRA"}, {"asset_id": "htb_aura_0082", "nom": "Saint-Jean de Sixt", "type": "poste_htb", "geometry": {"type": "Point", "coordinates": [6.41868, 45.91455]}, "tension_kv": 63, "puissance_mva": 100, "region": "AuRA"}, {"asset_id": "htb_aura_0083", "nom": "Poste 63kV", "type": "poste_htb", "geometry": {"type": "Point", "coordinates": [5.90235, 45.69617]}, "tension_kv": 63, "puissance_mva": 100, "region": "AuRA"}, {"asset_id": "htb_aura_0084", "nom": "Port-du-Temple", "type": "poste_htb", "geometry": {"type": "Point", "coordinates": [4.83224, 45.76054]}, "tension_kv": 63, "puissance_mva": 100, "region": "AuRA"}, {"asset_id": "htb_aura_0085", "nom": "Poste 63kV", "type": "poste_htb", "geometry": {"type": "Point", "coordinates": [4.8991, 45.70705]}, "tension_kv": 63, "puissance_mva": 100, "region": "AuRA"}, {"asset_id": "htb_aura_0086", "nom": "Creys-Malville", "type": "poste_htb", "geometry": {"type": "Point", "coordinates": [5.4665, 45.75615]}, "tension_kv": 400, "puissance_mva": 500, "region": "AuRA"}, {"asset_id": "htb_aura_0087", "nom": "Grande-Île", "type": "poste_htb", "geometry": {"type": "Point", "coordinates": [6.0282, 45.47066]}, "tension_kv": 400, "puissance_mva": 500, "region": "AuRA"}, {"asset_id": "htb_aura_0088", "nom": "Charpenay", "type": "poste_htb", "geometry": {"type": "Point", "coordinates": [4.69004, 45.81889]}, "tension_kv": 400, "puissance_mva": 500, "region": "AuRA"}, {"asset_id": "htb_aura_0089", "nom": "d'Échalas", "type": "poste_htb", "geometry": {"type": "Point", "coordinates": [4.71926, 45.54285]}, "tension_kv": 400, "puissance_mva": 500, "region": "AuRA"}, {"asset_id": "htb_aura_0090", "nom": "Pivoz-Cordier", "type": "poste_htb", "geometry": {"type": "Point", "coordinates": [4.76123, 45.40933]}, "tension_kv": 400, "puissance_mva": 500, "region": "AuRA"}, {"asset_id": "htb_aura_0091", "nom": "Coulange", "type": "poste_htb", "geometry": {"type": "Point", "coordinates": [4.72333, 44.63239]}, "tension_kv": 400, "puissance_mva": 500, "region": "AuRA"}, {"asset_id": "htb_aura_0092", "nom": "Chambaud", "type": "poste_htb", "geometry": {"type": "Point", "coordinates": [4.97632, 45.00141]}, "tension_kv": 225, "puissance_mva": 280, "region": "AuRA"}, {"asset_id": "htb_aura_0093", "nom": "Beaumont Monteux", "type": "poste_htb", "geometry": {"type": "Point", "coordinates": [4.92734, 45.01933]}, "tension_kv": 400, "puissance_mva": 500, "region": "AuRA"}, {"asset_id": "htb_aura_0094", "nom": "Bonneterre", "type": "poste_htb", "geometry": {"type": "Point", "coordinates": [4.88228, 45.76392]}, "tension_kv": 225, "puissance_mva": 280, "region": "AuRA"}, {"asset_id": "htb_aura_0095", "nom": "Achille Lignon", "type": "poste_htb", "geometry": {"type": "Point", "coordinates": [4.86088, 45.78504]}, "tension_kv": 63, "puissance_mva": 100, "region": "AuRA"}, {"asset_id": "htb_aura_0096", "nom": "Vignières", "type": "poste_htb", "geometry": {"type": "Point", "coordinates": [6.14809, 45.91639]}, "tension_kv": 63, "puissance_mva": 100, "region": "AuRA"}, {"asset_id": "htb_paca_0097", "nom": "Meyrargues", "type": "poste_htb", "geometry": {"type": "Point", "coordinates": [5.5137, 43.64373]}, "tension_kv": 63, "puissance_mva": 100, "region": "PACA"}, {"asset_id": "htb_paca_0098", "nom": "Poste 63kV", "type": "poste_htb", "geometry": {"type": "Point", "coordinates": [5.77833, 43.83145]}, "tension_kv": 63, "puissance_mva": 100, "region": "PACA"}, {"asset_id": "htb_paca_0099", "nom": "Le Broc-Carros", "type": "poste_htb", "geometry": {"type": "Point", "coordinates": [7.19157, 43.80318]}, "tension_kv": 400, "puissance_mva": 500, "region": "PACA"}, {"asset_id": "htb_paca_0100", "nom": "Saint-Estève", "type": "poste_htb", "geometry": {"type": "Point", "coordinates": [5.38456, 43.69318]}, "tension_kv": 225, "puissance_mva": 280, "region": "PACA"}, {"asset_id": "htb_paca_0101", "nom": "Poste 400kV", "type": "poste_htb", "geometry": {"type": "Point", "coordinates": [5.56943, 43.31226]}, "tension_kv": 400, "puissance_mva": 500, "region": "PACA"}, {"asset_id": "htb_occ_0102", "nom": "Poste 63kV", "type": "poste_htb", "geometry": {"type": "Point", "coordinates": [3.22995, 43.33]}, "tension_kv": 63, "puissance_mva": 100, "region": "OCC"}, {"asset_id": "htb_paca_0103", "nom": "Neoules", "type": "poste_htb", "geometry": {"type": "Point", "coordinates": [6.02233, 43.27641]}, "tension_kv": 400, "puissance_mva": 500, "region": "PACA"}, {"asset_id": "htb_paca_0104", "nom": "Valbonne", "type": "poste_htb", "geometry": {"type": "Point", "coordinates": [7.06751, 43.61673]}, "tension_kv": 63, "puissance_mva": 100, "region": "PACA"}, {"asset_id": "htb_aura_0105", "nom": "Villarodin", "type": "poste_htb", "geometry": {"type": "Point", "coordinates": [6.71524, 45.21274]}, "tension_kv": 400, "puissance_mva": 500, "region": "AuRA"}, {"asset_id": "htb_aura_0106", "nom": "Nord-Ouest", "type": "poste_htb", "geometry": {"type": "Point", "coordinates": [5.71219, 45.19893]}, "tension_kv": 63, "puissance_mva": 100, "region": "AuRA"}, {"asset_id": "htb_aura_0107", "nom": "Pariset", "type": "poste_htb", "geometry": {"type": "Point", "coordinates": [5.69977, 45.18011]}, "tension_kv": 225, "puissance_mva": 280, "region": "AuRA"}, {"asset_id": "htb_aura_0108", "nom": "Volvon", "type": "poste_htb", "geometry": {"type": "Point", "coordinates": [4.32141, 45.55955]}, "tension_kv": 225, "puissance_mva": 280, "region": "AuRA"}, {"asset_id": "htb_aura_0109", "nom": "Cailloux sur Fontaines", "type": "poste_htb", "geometry": {"type": "Point", "coordinates": [4.89893, 45.86515]}, "tension_kv": 225, "puissance_mva": 280, "region": "AuRA"}, {"asset_id": "htb_aura_0110", "nom": "des Meunières", "type": "poste_htb", "geometry": {"type": "Point", "coordinates": [4.87186, 45.92245]}, "tension_kv": 225, "puissance_mva": 280, "region": "AuRA"}, {"asset_id": "htb_aura_0111", "nom": "Poste 63kV", "type": "poste_htb", "geometry": {"type": "Point", "coordinates": [4.81871, 45.89941]}, "tension_kv": 63, "puissance_mva": 100, "region": "AuRA"}, {"asset_id": "htb_aura_0112", "nom": "source de Malgovert", "type": "poste_htb", "geometry": {"type": "Point", "coordinates": [6.78934, 45.61933]}, "tension_kv": 63, "puissance_mva": 100, "region": "AuRA"}, {"asset_id": "htb_paca_0113", "nom": "Boutre", "type": "poste_htb", "geometry": {"type": "Point", "coordinates": [5.83237, 43.69087]}, "tension_kv": 400, "puissance_mva": 500, "region": "PACA"}, {"asset_id": "htb_aura_0114", "nom": "Cudraz", "type": "poste_htb", "geometry": {"type": "Point", "coordinates": [6.44727, 45.61854]}, "tension_kv": 63, "puissance_mva": 100, "region": "AuRA"}, {"asset_id": "htb_paca_0115", "nom": "La Palun", "type": "poste_htb", "geometry": {"type": "Point", "coordinates": [5.48608, 43.46633]}, "tension_kv": 225, "puissance_mva": 280, "region": "PACA"}, {"asset_id": "htb_paca_0116", "nom": "Grisolles", "type": "poste_htb", "geometry": {"type": "Point", "coordinates": [6.13653, 44.57838]}, "tension_kv": 225, "puissance_mva": 280, "region": "PACA"}, {"asset_id": "htb_aura_0117", "nom": "Source Haute-Tension", "type": "poste_htb", "geometry": {"type": "Point", "coordinates": [4.83019, 45.7759]}, "tension_kv": 225, "puissance_mva": 280, "region": "AuRA"}, {"asset_id": "htb_occ_0118", "nom": "d'Argelès-sur-Mer", "type": "poste_htb", "geometry": {"type": "Point", "coordinates": [3.00743, 42.5497]}, "tension_kv": 63, "puissance_mva": 100, "region": "OCC"}, {"asset_id": "htb_paca_0119", "nom": "Casteldelfino", "type": "poste_htb", "geometry": {"type": "Point", "coordinates": [7.06411, 44.58647]}, "tension_kv": 90, "puissance_mva": 120, "region": "PACA"}, {"asset_id": "htb_paca_0120", "nom": "FS Salbeltrand", "type": "poste_htb", "geometry": {"type": "Point", "coordinates": [6.88779, 45.07475]}, "tension_kv": 90, "puissance_mva": 120, "region": "PACA"}, {"asset_id": "htb_paca_0121", "nom": "RFI Bardonecchia", "type": "poste_htb", "geometry": {"type": "Point", "coordinates": [6.70873, 45.07878]}, "tension_kv": 63, "puissance_mva": 100, "region": "PACA"}, {"asset_id": "htb_paca_0122", "nom": "Bardonecchia GR", "type": "poste_htb", "geometry": {"type": "Point", "coordinates": [6.70824, 45.07969]}, "tension_kv": 90, "puissance_mva": 120, "region": "PACA"}, {"asset_id": "htb_paca_0123", "nom": "Bardonecchia Melezet", "type": "poste_htb", "geometry": {"type": "Point", "coordinates": [6.66123, 45.05127]}, "tension_kv": 90, "puissance_mva": 120, "region": "PACA"}, {"asset_id": "htb_paca_0124", "nom": "Bardonecchia CP", "type": "poste_htb", "geometry": {"type": "Point", "coordinates": [6.70812, 45.07861]}, "tension_kv": 90, "puissance_mva": 120, "region": "PACA"}, {"asset_id": "htb_paca_0125", "nom": "Chiomonte", "type": "poste_htb", "geometry": {"type": "Point", "coordinates": [6.97993, 45.12164]}, "tension_kv": 63, "puissance_mva": 100, "region": "PACA"}, {"asset_id": "htb_paca_0126", "nom": "Acceglio Carico", "type": "poste_htb", "geometry": {"type": "Point", "coordinates": [7.01582, 44.47472]}, "tension_kv": 90, "puissance_mva": 120, "region": "PACA"}, {"asset_id": "htb_paca_0127", "nom": "Andonno Centrale", "type": "poste_htb", "geometry": {"type": "Point", "coordinates": [7.44543, 44.29469]}, "tension_kv": 90, "puissance_mva": 120, "region": "PACA"}, {"asset_id": "htb_paca_0128", "nom": "Andonno CP", "type": "poste_htb", "geometry": {"type": "Point", "coordinates": [7.44476, 44.29428]}, "tension_kv": 90, "puissance_mva": 120, "region": "PACA"}, {"asset_id": "htb_paca_0129", "nom": "L'Ardoise", "type": "poste_htb", "geometry": {"type": "Point", "coordinates": [4.70325, 44.08636]}, "tension_kv": 225, "puissance_mva": 280, "region": "PACA"}, {"asset_id": "htb_paca_0130", "nom": "Keller-Leleux", "type": "poste_htb", "geometry": {"type": "Point", "coordinates": [4.6946, 44.08933]}, "tension_kv": 63, "puissance_mva": 100, "region": "PACA"}, {"asset_id": "htb_aura_0131", "nom": "Châteauneuf-du Rhône", "type": "poste_htb", "geometry": {"type": "Point", "coordinates": [4.70906, 44.49537]}, "tension_kv": 225, "puissance_mva": 280, "region": "AuRA"}, {"asset_id": "htb_paca_0132", "nom": "Entracque", "type": "poste_htb", "geometry": {"type": "Point", "coordinates": [7.39162, 44.22848]}, "tension_kv": 400, "puissance_mva": 500, "region": "PACA"}, {"asset_id": "htb_paca_0133", "nom": "Fedio", "type": "poste_htb", "geometry": {"type": "Point", "coordinates": [7.26679, 44.32941]}, "tension_kv": 90, "puissance_mva": 120, "region": "PACA"}, {"asset_id": "htb_paca_0134", "nom": "San Giacomo", "type": "poste_htb", "geometry": {"type": "Point", "coordinates": [7.20079, 44.3458]}, "tension_kv": 90, "puissance_mva": 120, "region": "PACA"}, {"asset_id": "htb_paca_0135", "nom": "Demonte", "type": "poste_htb", "geometry": {"type": "Point", "coordinates": [7.27151, 44.31469]}, "tension_kv": 90, "puissance_mva": 120, "region": "PACA"}, {"asset_id": "htb_paca_0136", "nom": "Demonte TR1", "type": "poste_htb", "geometry": {"type": "Point", "coordinates": [7.27147, 44.3144]}, "tension_kv": 90, "puissance_mva": 120, "region": "PACA"}, {"asset_id": "htb_paca_0137", "nom": "Pietraporzio", "type": "poste_htb", "geometry": {"type": "Point", "coordinates": [7.031, 44.34411]}, "tension_kv": 90, "puissance_mva": 120, "region": "PACA"}, {"asset_id": "htb_paca_0138", "nom": "Ponte Marmora", "type": "poste_htb", "geometry": {"type": "Point", "coordinates": [7.09265, 44.48899]}, "tension_kv": 90, "puissance_mva": 120, "region": "PACA"}, {"asset_id": "htb_paca_0139", "nom": "Ponte Marmora CP", "type": "poste_htb", "geometry": {"type": "Point", "coordinates": [7.09241, 44.489]}, "tension_kv": 90, "puissance_mva": 120, "region": "PACA"}, {"asset_id": "htb_paca_0140", "nom": "Sampeyre", "type": "poste_htb", "geometry": {"type": "Point", "coordinates": [7.19498, 44.57459]}, "tension_kv": 90, "puissance_mva": 120, "region": "PACA"}, {"asset_id": "htb_paca_0141", "nom": "Vinadio Centrale", "type": "poste_htb", "geometry": {"type": "Point", "coordinates": [7.20016, 44.30494]}, "tension_kv": 90, "puissance_mva": 120, "region": "PACA"}, {"asset_id": "htb_paca_0142", "nom": "la Feuillane", "type": "poste_htb", "geometry": {"type": "Point", "coordinates": [4.90611, 43.45483]}, "tension_kv": 400, "puissance_mva": 500, "region": "PACA"}, {"asset_id": "htb_paca_0143", "nom": "Poste 63kV", "type": "poste_htb", "geometry": {"type": "Point", "coordinates": [4.84923, 43.45445]}, "tension_kv": 63, "puissance_mva": 100, "region": "PACA"}, {"asset_id": "htb_paca_0144", "nom": "Cesana Torinese", "type": "poste_htb", "geometry": {"type": "Point", "coordinates": [6.80289, 44.94789]}, "tension_kv": 90, "puissance_mva": 120, "region": "PACA"}, {"asset_id": "htb_paca_0145", "nom": "Pragelato", "type": "poste_htb", "geometry": {"type": "Point", "coordinates": [6.9474, 45.02038]}, "tension_kv": 90, "puissance_mva": 120, "region": "PACA"}, {"asset_id": "htb_aura_0146", "nom": "Poste 225kV", "type": "poste_htb", "geometry": {"type": "Point", "coordinates": [5.73665, 45.08481]}, "tension_kv": 225, "puissance_mva": 280, "region": "AuRA"}, {"asset_id": "htb_paca_0147", "nom": "Darse", "type": "poste_htb", "geometry": {"type": "Point", "coordinates": [4.84746, 43.42834]}, "tension_kv": 225, "puissance_mva": 280, "region": "PACA"}, {"asset_id": "htb_paca_0148", "nom": "Poste 225kV", "type": "poste_htb", "geometry": {"type": "Point", "coordinates": [4.83308, 43.43578]}, "tension_kv": 225, "puissance_mva": 280, "region": "PACA"}, {"asset_id": "htb_paca_0149", "nom": "Poste 225kV", "type": "poste_htb", "geometry": {"type": "Point", "coordinates": [4.84988, 43.44302]}, "tension_kv": 225, "puissance_mva": 280, "region": "PACA"}, {"asset_id": "htb_aura_0150", "nom": "Poste 63kV", "type": "poste_htb", "geometry": {"type": "Point", "coordinates": [6.07131, 45.08716]}, "tension_kv": 63, "puissance_mva": 100, "region": "AuRA"}, {"asset_id": "htb_paca_0151", "nom": "San Damiano Macra", "type": "poste_htb", "geometry": {"type": "Point", "coordinates": [7.24573, 44.4879]}, "tension_kv": 90, "puissance_mva": 120, "region": "PACA"}, {"asset_id": "htb_paca_0152", "nom": "Susa", "type": "poste_htb", "geometry": {"type": "Point", "coordinates": [7.04176, 45.13892]}, "tension_kv": 90, "puissance_mva": 120, "region": "PACA"}, {"asset_id": "htb_paca_0153", "nom": "Oulx", "type": "poste_htb", "geometry": {"type": "Point", "coordinates": [6.83953, 45.03957]}, "tension_kv": 90, "puissance_mva": 120, "region": "PACA"}, {"asset_id": "htb_aura_0154", "nom": "Poste 63kV", "type": "poste_htb", "geometry": {"type": "Point", "coordinates": [5.78771, 45.20619]}, "tension_kv": 63, "puissance_mva": 100, "region": "AuRA"}, {"asset_id": "htb_aura_0155", "nom": "du Confluent", "type": "poste_htb", "geometry": {"type": "Point", "coordinates": [5.70295, 45.19697]}, "tension_kv": 225, "puissance_mva": 280, "region": "AuRA"}, {"asset_id": "htb_aura_0156", "nom": "Poste 63kV", "type": "poste_htb", "geometry": {"type": "Point", "coordinates": [4.79371, 45.35834]}, "tension_kv": 63, "puissance_mva": 100, "region": "AuRA"}, {"asset_id": "htb_aura_0157", "nom": "Poste 63kV", "type": "poste_htb", "geometry": {"type": "Point", "coordinates": [3.5126, 45.73867]}, "tension_kv": 63, "puissance_mva": 100, "region": "AuRA"}, {"asset_id": "htb_aura_0158", "nom": "Drumettaz", "type": "poste_htb", "geometry": {"type": "Point", "coordinates": [5.91295, 45.64738]}, "tension_kv": 63, "puissance_mva": 100, "region": "AuRA"}, {"asset_id": "htb_paca_0159", "nom": "Tavel", "type": "poste_htb", "geometry": {"type": "Point", "coordinates": [4.64277, 44.01496]}, "tension_kv": 400, "puissance_mva": 500, "region": "PACA"}, {"asset_id": "htb_aura_0160", "nom": "du Grand Verger", "type": "poste_htb", "geometry": {"type": "Point", "coordinates": [5.90856, 45.58042]}, "tension_kv": 63, "puissance_mva": 100, "region": "AuRA"}, {"asset_id": "htb_paca_0161", "nom": "Rognac", "type": "poste_htb", "geometry": {"type": "Point", "coordinates": [5.21741, 43.50731]}, "tension_kv": 225, "puissance_mva": 280, "region": "PACA"}, {"asset_id": "htb_paca_0162", "nom": "Serre-Ponçon", "type": "poste_htb", "geometry": {"type": "Point", "coordinates": [6.26791, 44.46957]}, "tension_kv": 225, "puissance_mva": 280, "region": "PACA"}, {"asset_id": "htb_occ_0163", "nom": "Saint-Vincent", "type": "poste_htb", "geometry": {"type": "Point", "coordinates": [3.21894, 43.36878]}, "tension_kv": 225, "puissance_mva": 280, "region": "OCC"}, {"asset_id": "htb_paca_0164", "nom": "des Jonquières", "type": "poste_htb", "geometry": {"type": "Point", "coordinates": [4.58385, 43.82916]}, "tension_kv": 400, "puissance_mva": 500, "region": "PACA"}, {"asset_id": "htb_aura_0165", "nom": "Cusset", "type": "poste_htb", "geometry": {"type": "Point", "coordinates": [4.91623, 45.765]}, "tension_kv": 225, "puissance_mva": 280, "region": "AuRA"}, {"asset_id": "htb_aura_0166", "nom": "Poqste électrique de Neulise", "type": "poste_htb", "geometry": {"type": "Point", "coordinates": [4.17833, 45.9114]}, "tension_kv": 63, "puissance_mva": 100, "region": "AuRA"}, {"asset_id": "htb_paca_0167", "nom": "Lavéra Martigues", "type": "poste_htb", "geometry": {"type": "Point", "coordinates": [5.02375, 43.38338]}, "tension_kv": 225, "puissance_mva": 280, "region": "PACA"}, {"asset_id": "htb_paca_0168", "nom": "Poste 63kV", "type": "poste_htb", "geometry": {"type": "Point", "coordinates": [7.47768, 43.88275]}, "tension_kv": 63, "puissance_mva": 100, "region": "PACA"}, {"asset_id": "htb_aura_0169", "nom": "Poste 63kV", "type": "poste_htb", "geometry": {"type": "Point", "coordinates": [4.97043, 45.82769]}, "tension_kv": 63, "puissance_mva": 100, "region": "AuRA"}, {"asset_id": "htb_aura_0170", "nom": "Poste 63kV", "type": "poste_htb", "geometry": {"type": "Point", "coordinates": [4.83707, 45.84743]}, "tension_kv": 63, "puissance_mva": 100, "region": "AuRA"}, {"asset_id": "htb_aura_0171", "nom": "Poste 63kV", "type": "poste_htb", "geometry": {"type": "Point", "coordinates": [4.7618, 45.80655]}, "tension_kv": 63, "puissance_mva": 100, "region": "AuRA"}, {"asset_id": "htb_aura_0172", "nom": "Poste 400kV", "type": "poste_htb", "geometry": {"type": "Point", "coordinates": [4.80494, 45.74718]}, "tension_kv": 400, "puissance_mva": 500, "region": "AuRA"}, {"asset_id": "htb_aura_0173", "nom": "Aoste", "type": "poste_htb", "geometry": {"type": "Point", "coordinates": [5.61134, 45.58388]}, "tension_kv": 225, "puissance_mva": 280, "region": "AuRA"}, {"asset_id": "htb_aura_0174", "nom": "Givors", "type": "poste_htb", "geometry": {"type": "Point", "coordinates": [4.78683, 45.57194]}, "tension_kv": 225, "puissance_mva": 280, "region": "AuRA"}, {"asset_id": "htb_aura_0175", "nom": "Meyzieu", "type": "poste_htb", "geometry": {"type": "Point", "coordinates": [5.02661, 45.76155]}, "tension_kv": 225, "puissance_mva": 280, "region": "AuRA"}, {"asset_id": "htb_aura_0176", "nom": "Givors Bans", "type": "poste_htb", "geometry": {"type": "Point", "coordinates": [4.78235, 45.57568]}, "tension_kv": 225, "puissance_mva": 280, "region": "AuRA"}, {"asset_id": "htb_paca_0177", "nom": "Poste 225kV", "type": "poste_htb", "geometry": {"type": "Point", "coordinates": [5.38066, 43.35112]}, "tension_kv": 225, "puissance_mva": 280, "region": "PACA"}, {"asset_id": "htb_paca_0178", "nom": "d'Enco-de-Botte", "type": "poste_htb", "geometry": {"type": "Point", "coordinates": [5.48088, 43.32088]}, "tension_kv": 225, "puissance_mva": 280, "region": "PACA"}, {"asset_id": "htb_paca_0179", "nom": "Poste 63kV", "type": "poste_htb", "geometry": {"type": "Point", "coordinates": [5.59137, 43.28557]}, "tension_kv": 63, "puissance_mva": 100, "region": "PACA"}, {"asset_id": "htb_paca_0180", "nom": "Gardanne", "type": "poste_htb", "geometry": {"type": "Point", "coordinates": [5.4684, 43.46381]}, "tension_kv": 63, "puissance_mva": 100, "region": "PACA"}, {"asset_id": "htb_paca_0181", "nom": "l'Ensoleillé", "type": "poste_htb", "geometry": {"type": "Point", "coordinates": [5.42727, 43.51818]}, "tension_kv": 63, "puissance_mva": 100, "region": "PACA"}, {"asset_id": "htb_paca_0182", "nom": "Poste 63kV", "type": "poste_htb", "geometry": {"type": "Point", "coordinates": [5.3913, 43.4234]}, "tension_kv": 63, "puissance_mva": 100, "region": "PACA"}, {"asset_id": "htb_paca_0183", "nom": "Poste 63kV", "type": "poste_htb", "geometry": {"type": "Point", "coordinates": [5.38827, 43.41867]}, "tension_kv": 63, "puissance_mva": 100, "region": "PACA"}, {"asset_id": "htb_paca_0184", "nom": "Caillols", "type": "poste_htb", "geometry": {"type": "Point", "coordinates": [5.45964, 43.29331]}, "tension_kv": 225, "puissance_mva": 280, "region": "PACA"}, {"asset_id": "htb_paca_0185", "nom": "Poste 225kV", "type": "poste_htb", "geometry": {"type": "Point", "coordinates": [5.42742, 43.25698]}, "tension_kv": 225, "puissance_mva": 280, "region": "PACA"}, {"asset_id": "htb_paca_0186", "nom": "Poste 63kV", "type": "poste_htb", "geometry": {"type": "Point", "coordinates": [5.52932, 43.28499]}, "tension_kv": 63, "puissance_mva": 100, "region": "PACA"}, {"asset_id": "htb_paca_0187", "nom": "RFF de La Penne", "type": "poste_htb", "geometry": {"type": "Point", "coordinates": [5.5078, 43.28577]}, "tension_kv": 63, "puissance_mva": 100, "region": "PACA"}, {"asset_id": "htb_paca_0188", "nom": "Poste 63kV", "type": "poste_htb", "geometry": {"type": "Point", "coordinates": [5.58036, 43.25131]}, "tension_kv": 63, "puissance_mva": 100, "region": "PACA"}, {"asset_id": "htb_aura_0189", "nom": "Lignat", "type": "poste_htb", "geometry": {"type": "Point", "coordinates": [3.26568, 45.72016]}, "tension_kv": 225, "puissance_mva": 280, "region": "AuRA"}, {"asset_id": "htb_aura_0190", "nom": "Poste 63kV", "type": "poste_htb", "geometry": {"type": "Point", "coordinates": [3.48013, 45.95666]}, "tension_kv": 63, "puissance_mva": 100, "region": "AuRA"}, {"asset_id": "htb_aura_0191", "nom": "Poste 63kV", "type": "poste_htb", "geometry": {"type": "Point", "coordinates": [5.26512, 45.84]}, "tension_kv": 63, "puissance_mva": 100, "region": "AuRA"}, {"asset_id": "htb_aura_0192", "nom": "Poste 63kV", "type": "poste_htb", "geometry": {"type": "Point", "coordinates": [5.32892, 45.95654]}, "tension_kv": 63, "puissance_mva": 100, "region": "AuRA"}, {"asset_id": "htb_corse_0193", "nom": "Sisco", "type": "poste_htb", "geometry": {"type": "Point", "coordinates": [9.4784, 42.80693]}, "tension_kv": 90, "puissance_mva": 120, "region": "Corse"}, {"asset_id": "htb_occ_0194", "nom": "Ganges", "type": "poste_htb", "geometry": {"type": "Point", "coordinates": [3.72424, 43.94587]}, "tension_kv": 225, "puissance_mva": 280, "region": "OCC"}, {"asset_id": "htb_occ_0195", "nom": "Avèze", "type": "poste_htb", "geometry": {"type": "Point", "coordinates": [3.59958, 43.97949]}, "tension_kv": 63, "puissance_mva": 100, "region": "OCC"}, {"asset_id": "htb_aura_0196", "nom": "Poste 63kV", "type": "poste_htb", "geometry": {"type": "Point", "coordinates": [4.15116, 44.16644]}, "tension_kv": 63, "puissance_mva": 100, "region": "AuRA"}, {"asset_id": "htb_aura_0197", "nom": "Viradel", "type": "poste_htb", "geometry": {"type": "Point", "coordinates": [4.1775, 44.13784]}, "tension_kv": 225, "puissance_mva": 280, "region": "AuRA"}, {"asset_id": "htb_aura_0198", "nom": "Saint-Privat-des-Vieux", "type": "poste_htb", "geometry": {"type": "Point", "coordinates": [4.13508, 44.13806]}, "tension_kv": 63, "puissance_mva": 100, "region": "AuRA"}, {"asset_id": "htb_paca_0199", "nom": "Roquerousse", "type": "poste_htb", "geometry": {"type": "Point", "coordinates": [5.10082, 43.67351]}, "tension_kv": 225, "puissance_mva": 280, "region": "PACA"}, {"asset_id": "htb_paca_0200", "nom": "Poste 63kV", "type": "poste_htb", "geometry": {"type": "Point", "coordinates": [5.51212, 43.70651]}, "tension_kv": 63, "puissance_mva": 100, "region": "PACA"}, {"asset_id": "htb_paca_0201", "nom": "Trans en Provence", "type": "poste_htb", "geometry": {"type": "Point", "coordinates": [6.47523, 43.51013]}, "tension_kv": 400, "puissance_mva": 500, "region": "PACA"}, {"asset_id": "htb_paca_0202", "nom": "Cadarache", "type": "poste_htb", "geometry": {"type": "Point", "coordinates": [5.76758, 43.68279]}, "tension_kv": 63, "puissance_mva": 100, "region": "PACA"}, {"asset_id": "htb_paca_0203", "nom": "Poste 63kV", "type": "poste_htb", "geometry": {"type": "Point", "coordinates": [5.82633, 43.72533]}, "tension_kv": 63, "puissance_mva": 100, "region": "PACA"}, {"asset_id": "htb_paca_0204", "nom": "Poste 63kV", "type": "poste_htb", "geometry": {"type": "Point", "coordinates": [5.65654, 43.68048]}, "tension_kv": 63, "puissance_mva": 100, "region": "PACA"}, {"asset_id": "htb_paca_0205", "nom": "Saint-Tulle", "type": "poste_htb", "geometry": {"type": "Point", "coordinates": [5.77494, 43.7835]}, "tension_kv": 225, "puissance_mva": 280, "region": "PACA"}, {"asset_id": "htb_paca_0206", "nom": "du Biançon", "type": "poste_htb", "geometry": {"type": "Point", "coordinates": [6.83589, 43.59509]}, "tension_kv": 400, "puissance_mva": 500, "region": "PACA"}, {"asset_id": "htb_aura_0207", "nom": "Poste 63kV", "type": "poste_htb", "geometry": {"type": "Point", "coordinates": [4.70152, 45.23664]}, "tension_kv": 63, "puissance_mva": 100, "region": "AuRA"}, {"asset_id": "htb_aura_0208", "nom": "Vaise", "type": "poste_htb", "geometry": {"type": "Point", "coordinates": [4.80632, 45.77577]}, "tension_kv": 225, "puissance_mva": 280, "region": "AuRA"}, {"asset_id": "htb_aura_0209", "nom": "des Espagnoux", "type": "poste_htb", "geometry": {"type": "Point", "coordinates": [6.13926, 45.88717]}, "tension_kv": 63, "puissance_mva": 100, "region": "AuRA"}, {"asset_id": "htb_aura_0210", "nom": "Pratclaux", "type": "poste_htb", "geometry": {"type": "Point", "coordinates": [3.64993, 44.97345]}, "tension_kv": 225, "puissance_mva": 280, "region": "AuRA"}, {"asset_id": "htb_aura_0211", "nom": "63kV de Pratclaux", "type": "poste_htb", "geometry": {"type": "Point", "coordinates": [3.65012, 44.97243]}, "tension_kv": 63, "puissance_mva": 100, "region": "AuRA"}, {"asset_id": "htb_aura_0212", "nom": "Sanssac l'église", "type": "poste_htb", "geometry": {"type": "Point", "coordinates": [3.8005, 45.04531]}, "tension_kv": 225, "puissance_mva": 280, "region": "AuRA"}, {"asset_id": "htb_aura_0213", "nom": "Poste 63kV", "type": "poste_htb", "geometry": {"type": "Point", "coordinates": [5.04861, 45.84292]}, "tension_kv": 63, "puissance_mva": 100, "region": "AuRA"}, {"asset_id": "htb_aura_0214", "nom": "Poste 63kV", "type": "poste_htb", "geometry": {"type": "Point", "coordinates": [5.08741, 45.84881]}, "tension_kv": 63, "puissance_mva": 100, "region": "AuRA"}, {"asset_id": "htb_aura_0215", "nom": "Vénissieux", "type": "poste_htb", "geometry": {"type": "Point", "coordinates": [4.90627, 45.71632]}, "tension_kv": 225, "puissance_mva": 280, "region": "AuRA"}, {"asset_id": "htb_aura_0216", "nom": "Poste 63kV", "type": "poste_htb", "geometry": {"type": "Point", "coordinates": [4.97779, 45.82363]}, "tension_kv": 63, "puissance_mva": 100, "region": "AuRA"}, {"asset_id": "htb_paca_0217", "nom": "Poste 63kV", "type": "poste_htb", "geometry": {"type": "Point", "coordinates": [4.78119, 43.94421]}, "tension_kv": 63, "puissance_mva": 100, "region": "PACA"}, {"asset_id": "htb_aura_0218", "nom": "Poste 63kV", "type": "poste_htb", "geometry": {"type": "Point", "coordinates": [5.65661, 45.20861]}, "tension_kv": 63, "puissance_mva": 100, "region": "AuRA"}, {"asset_id": "htb_paca_0219", "nom": "Poste 63kV", "type": "poste_htb", "geometry": {"type": "Point", "coordinates": [6.57935, 44.27395]}, "tension_kv": 63, "puissance_mva": 100, "region": "PACA"}, {"asset_id": "htb_aura_0220", "nom": "source de Pont-Évêque", "type": "poste_htb", "geometry": {"type": "Point", "coordinates": [4.92913, 45.52226]}, "tension_kv": 63, "puissance_mva": 100, "region": "AuRA"}, {"asset_id": "htb_aura_0221", "nom": "Gampaloup", "type": "poste_htb", "geometry": {"type": "Point", "coordinates": [4.83339, 45.33527]}, "tension_kv": 225, "puissance_mva": 280, "region": "AuRA"}, {"asset_id": "htb_occ_0222", "nom": "Montpaon", "type": "poste_htb", "geometry": {"type": "Point", "coordinates": [3.10824, 43.86623]}, "tension_kv": 63, "puissance_mva": 100, "region": "OCC"}, {"asset_id": "htb_aura_0223", "nom": "Champblain", "type": "poste_htb", "geometry": {"type": "Point", "coordinates": [4.81216, 45.21704]}, "tension_kv": 225, "puissance_mva": 280, "region": "AuRA"}, {"asset_id": "htb_aura_0224", "nom": "Poste 63kV", "type": "poste_htb", "geometry": {"type": "Point", "coordinates": [4.99443, 45.58153]}, "tension_kv": 63, "puissance_mva": 100, "region": "AuRA"}, {"asset_id": "htb_occ_0225", "nom": "Fouscais", "type": "poste_htb", "geometry": {"type": "Point", "coordinates": [3.45753, 43.60649]}, "tension_kv": 225, "puissance_mva": 280, "region": "OCC"}, {"asset_id": "htb_occ_0226", "nom": "Lodève", "type": "poste_htb", "geometry": {"type": "Point", "coordinates": [3.31353, 43.72329]}, "tension_kv": 63, "puissance_mva": 100, "region": "OCC"}, {"asset_id": "htb_occ_0227", "nom": "Sangonis", "type": "poste_htb", "geometry": {"type": "Point", "coordinates": [3.5136, 43.66043]}, "tension_kv": 63, "puissance_mva": 100, "region": "OCC"}, {"asset_id": "htb_occ_0228", "nom": "Balaruc", "type": "poste_htb", "geometry": {"type": "Point", "coordinates": [3.70619, 43.44601]}, "tension_kv": 225, "puissance_mva": 280, "region": "OCC"}, {"asset_id": "htb_occ_0229", "nom": "Poste 63kV", "type": "poste_htb", "geometry": {"type": "Point", "coordinates": [3.81054, 43.50916]}, "tension_kv": 63, "puissance_mva": 100, "region": "OCC"}, {"asset_id": "htb_occ_0230", "nom": "Poste 63kV", "type": "poste_htb", "geometry": {"type": "Point", "coordinates": [3.75219, 43.43626]}, "tension_kv": 63, "puissance_mva": 100, "region": "OCC"}, {"asset_id": "htb_aura_0231", "nom": "La Madeleine", "type": "poste_htb", "geometry": {"type": "Point", "coordinates": [4.64692, 45.54021]}, "tension_kv": 225, "puissance_mva": 280, "region": "AuRA"}, {"asset_id": "htb_aura_0232", "nom": "Millery", "type": "poste_htb", "geometry": {"type": "Point", "coordinates": [4.77144, 45.64837]}, "tension_kv": 63, "puissance_mva": 100, "region": "AuRA"}, {"asset_id": "htb_corse_0233", "nom": "Castirla", "type": "poste_htb", "geometry": {"type": "Point", "coordinates": [9.13327, 42.38034]}, "tension_kv": 90, "puissance_mva": 120, "region": "Corse"}, {"asset_id": "htb_occ_0234", "nom": "Poste 63kV", "type": "poste_htb", "geometry": {"type": "Point", "coordinates": [3.25131, 43.44307]}, "tension_kv": 63, "puissance_mva": 100, "region": "OCC"}, {"asset_id": "htb_occ_0235", "nom": "Poste 63kV", "type": "poste_htb", "geometry": {"type": "Point", "coordinates": [3.23121, 43.33038]}, "tension_kv": 63, "puissance_mva": 100, "region": "OCC"}, {"asset_id": "htb_occ_0236", "nom": "Poste 63kV", "type": "poste_htb", "geometry": {"type": "Point", "coordinates": [3.12816, 43.29426]}, "tension_kv": 63, "puissance_mva": 100, "region": "OCC"}, {"asset_id": "htb_aura_0237", "nom": "du Soleil", "type": "poste_htb", "geometry": {"type": "Point", "coordinates": [4.40866, 45.46157]}, "tension_kv": 225, "puissance_mva": 280, "region": "AuRA"}, {"asset_id": "htb_aura_0238", "nom": "Sous-Station SNCF de Terrenoire", "type": "poste_htb", "geometry": {"type": "Point", "coordinates": [4.45556, 45.43906]}, "tension_kv": 63, "puissance_mva": 100, "region": "AuRA"}, {"asset_id": "htb_occ_0239", "nom": "Vias", "type": "poste_htb", "geometry": {"type": "Point", "coordinates": [3.42743, 43.3169]}, "tension_kv": 63, "puissance_mva": 100, "region": "OCC"}, {"asset_id": "htb_aura_0240", "nom": "Jacquard", "type": "poste_htb", "geometry": {"type": "Point", "coordinates": [4.37599, 45.44389]}, "tension_kv": 225, "puissance_mva": 280, "region": "AuRA"}, {"asset_id": "htb_aura_0241", "nom": "Firminy-Vert", "type": "poste_htb", "geometry": {"type": "Point", "coordinates": [4.28467, 45.37906]}, "tension_kv": 63, "puissance_mva": 100, "region": "AuRA"}, {"asset_id": "htb_aura_0242", "nom": "du Bec", "type": "poste_htb", "geometry": {"type": "Point", "coordinates": [4.3104, 45.39004]}, "tension_kv": 63, "puissance_mva": 100, "region": "AuRA"}, {"asset_id": "htb_occ_0243", "nom": "Florensac", "type": "poste_htb", "geometry": {"type": "Point", "coordinates": [3.48156, 43.38641]}, "tension_kv": 225, "puissance_mva": 280, "region": "OCC"}, {"asset_id": "htb_occ_0244", "nom": "Poste 63kV", "type": "poste_htb", "geometry": {"type": "Point", "coordinates": [3.50647, 43.3085]}, "tension_kv": 63, "puissance_mva": 100, "region": "OCC"}, {"asset_id": "htb_occ_0245", "nom": "Poste 63kV", "type": "poste_htb", "geometry": {"type": "Point", "coordinates": [3.5685, 43.33581]}, "tension_kv": 63, "puissance_mva": 100, "region": "OCC"}, {"asset_id": "htb_occ_0246", "nom": "Poste 63kV", "type": "poste_htb", "geometry": {"type": "Point", "coordinates": [3.60674, 43.46532]}, "tension_kv": 63, "puissance_mva": 100, "region": "OCC"}, {"asset_id": "htb_occ_0247", "nom": "Poste 63kV", "type": "poste_htb", "geometry": {"type": "Point", "coordinates": [3.41068, 43.44851]}, "tension_kv": 63, "puissance_mva": 100, "region": "OCC"}, {"asset_id": "htb_aura_0248", "nom": "Trevas", "type": "poste_htb", "geometry": {"type": "Point", "coordinates": [4.16485, 45.2445]}, "tension_kv": 225, "puissance_mva": 280, "region": "AuRA"}, {"asset_id": "htb_aura_0249", "nom": "Poste 63kV", "type": "poste_htb", "geometry": {"type": "Point", "coordinates": [4.24331, 45.33437]}, "tension_kv": 63, "puissance_mva": 100, "region": "AuRA"}, {"asset_id": "htb_aura_0250", "nom": "Saint-Just-sur-Loire", "type": "poste_htb", "geometry": {"type": "Point", "coordinates": [4.26222, 45.49163]}, "tension_kv": 63, "puissance_mva": 100, "region": "AuRA"}, {"asset_id": "htb_aura_0251", "nom": "Firminy", "type": "poste_htb", "geometry": {"type": "Point", "coordinates": [4.28768, 45.39378]}, "tension_kv": 225, "puissance_mva": 280, "region": "AuRA"}, {"asset_id": "htb_aura_0252", "nom": "Poste 225kV", "type": "poste_htb", "geometry": {"type": "Point", "coordinates": [4.28661, 45.39311]}, "tension_kv": 225, "puissance_mva": 280, "region": "AuRA"}, {"asset_id": "htb_aura_0253", "nom": "d'Unieux", "type": "poste_htb", "geometry": {"type": "Point", "coordinates": [4.27398, 45.3912]}, "tension_kv": 63, "puissance_mva": 100, "region": "AuRA"}, {"asset_id": "htb_aura_0254", "nom": "Veauche", "type": "poste_htb", "geometry": {"type": "Point", "coordinates": [4.30688, 45.5505]}, "tension_kv": 63, "puissance_mva": 100, "region": "AuRA"}, {"asset_id": "htb_paca_0255", "nom": "La Motte", "type": "poste_htb", "geometry": {"type": "Point", "coordinates": [4.82737, 43.98921]}, "tension_kv": 225, "puissance_mva": 280, "region": "PACA"}, {"asset_id": "htb_aura_0256", "nom": "Poste 63kV", "type": "poste_htb", "geometry": {"type": "Point", "coordinates": [4.22521, 45.23354]}, "tension_kv": 63, "puissance_mva": 100, "region": "AuRA"}, {"asset_id": "htb_aura_0257", "nom": "Poste 63kV", "type": "poste_htb", "geometry": {"type": "Point", "coordinates": [4.33718, 45.2153]}, "tension_kv": 63, "puissance_mva": 100, "region": "AuRA"}, {"asset_id": "htb_aura_0258", "nom": "Poste 63kV", "type": "poste_htb", "geometry": {"type": "Point", "coordinates": [4.14072, 45.30244]}, "tension_kv": 63, "puissance_mva": 100, "region": "AuRA"}, {"asset_id": "htb_aura_0259", "nom": "Poste 63kV", "type": "poste_htb", "geometry": {"type": "Point", "coordinates": [4.3748, 45.63515]}, "tension_kv": 63, "puissance_mva": 100, "region": "AuRA"}, {"asset_id": "htb_aura_0260", "nom": "Poste 63kV", "type": "poste_htb", "geometry": {"type": "Point", "coordinates": [6.78181, 45.57894]}, "tension_kv": 63, "puissance_mva": 100, "region": "AuRA"}, {"asset_id": "htb_aura_0261", "nom": "Feurs", "type": "poste_htb", "geometry": {"type": "Point", "coordinates": [4.23655, 45.73198]}, "tension_kv": 225, "puissance_mva": 280, "region": "AuRA"}, {"asset_id": "htb_aura_0262", "nom": "Poste 63kV", "type": "poste_htb", "geometry": {"type": "Point", "coordinates": [4.27366, 45.83306]}, "tension_kv": 63, "puissance_mva": 100, "region": "AuRA"}, {"asset_id": "htb_occ_0263", "nom": "Poste 63kV", "type": "poste_htb", "geometry": {"type": "Point", "coordinates": [3.49394, 43.51195]}, "tension_kv": 63, "puissance_mva": 100, "region": "OCC"}, {"asset_id": "htb_aura_0264", "nom": "Poste 63kV", "type": "poste_htb", "geometry": {"type": "Point", "coordinates": [4.31854, 45.97941]}, "tension_kv": 63, "puissance_mva": 100, "region": "AuRA"}, {"asset_id": "htb_aura_0265", "nom": "Moingt", "type": "poste_htb", "geometry": {"type": "Point", "coordinates": [4.08084, 45.59585]}, "tension_kv": 63, "puissance_mva": 100, "region": "AuRA"}, {"asset_id": "htb_aura_0266", "nom": "Sury-le-Comtal", "type": "poste_htb", "geometry": {"type": "Point", "coordinates": [4.20129, 45.53997]}, "tension_kv": 63, "puissance_mva": 100, "region": "AuRA"}, {"asset_id": "htb_aura_0267", "nom": "St-Bonnet-le-Château", "type": "poste_htb", "geometry": {"type": "Point", "coordinates": [4.07152, 45.42937]}, "tension_kv": 63, "puissance_mva": 100, "region": "AuRA"}, {"asset_id": "htb_aura_0268", "nom": "Montverdun", "type": "poste_htb", "geometry": {"type": "Point", "coordinates": [4.05979, 45.71472]}, "tension_kv": 63, "puissance_mva": 100, "region": "AuRA"}, {"asset_id": "htb_aura_0269", "nom": "Champ-du-Geai", "type": "poste_htb", "geometry": {"type": "Point", "coordinates": [4.50178, 45.46944]}, "tension_kv": 63, "puissance_mva": 100, "region": "AuRA"}, {"asset_id": "htb_aura_0270", "nom": "Villerest", "type": "poste_htb", "geometry": {"type": "Point", "coordinates": [4.05041, 45.98571]}, "tension_kv": 63, "puissance_mva": 100, "region": "AuRA"}, {"asset_id": "htb_aura_0271", "nom": "Lentigny", "type": "poste_htb", "geometry": {"type": "Point", "coordinates": [3.9794, 45.98789]}, "tension_kv": 63, "puissance_mva": 100, "region": "AuRA"}, {"asset_id": "htb_aura_0272", "nom": "du Péage de Vizille", "type": "poste_htb", "geometry": {"type": "Point", "coordinates": [5.77774, 45.05732]}, "tension_kv": 63, "puissance_mva": 100, "region": "AuRA"}, {"asset_id": "htb_aura_0273", "nom": "des Farges", "type": "poste_htb", "geometry": {"type": "Point", "coordinates": [4.55288, 45.49246]}, "tension_kv": 63, "puissance_mva": 100, "region": "AuRA"}, {"asset_id": "htb_aura_0274", "nom": "l'Horme", "type": "poste_htb", "geometry": {"type": "Point", "coordinates": [4.55209, 45.49096]}, "tension_kv": 63, "puissance_mva": 100, "region": "AuRA"}, {"asset_id": "htb_aura_0275", "nom": "Poste 63kV", "type": "poste_htb", "geometry": {"type": "Point", "coordinates": [4.70399, 45.85749]}, "tension_kv": 63, "puissance_mva": 100, "region": "AuRA"}, {"asset_id": "htb_aura_0276", "nom": "Sinard", "type": "poste_htb", "geometry": {"type": "Point", "coordinates": [5.66255, 44.95097]}, "tension_kv": 225, "puissance_mva": 280, "region": "AuRA"}, {"asset_id": "htb_aura_0277", "nom": "Poste 63kV", "type": "poste_htb", "geometry": {"type": "Point", "coordinates": [4.66018, 45.86644]}, "tension_kv": 63, "puissance_mva": 100, "region": "AuRA"}, {"asset_id": "htb_aura_0278", "nom": "Poste 63kV", "type": "poste_htb", "geometry": {"type": "Point", "coordinates": [4.9399, 45.92364]}, "tension_kv": 63, "puissance_mva": 100, "region": "AuRA"}, {"asset_id": "htb_aura_0279", "nom": "Poste 63kV", "type": "poste_htb", "geometry": {"type": "Point", "coordinates": [4.75108, 45.92215]}, "tension_kv": 63, "puissance_mva": 100, "region": "AuRA"}, {"asset_id": "htb_aura_0280", "nom": "Poste 63kV", "type": "poste_htb", "geometry": {"type": "Point", "coordinates": [4.7202, 45.97782]}, "tension_kv": 63, "puissance_mva": 100, "region": "AuRA"}, {"asset_id": "htb_occ_0281", "nom": "Clermont-l'Hérault", "type": "poste_htb", "geometry": {"type": "Point", "coordinates": [3.43615, 43.62121]}, "tension_kv": 63, "puissance_mva": 100, "region": "OCC"}, {"asset_id": "htb_occ_0282", "nom": "Poste 63kV", "type": "poste_htb", "geometry": {"type": "Point", "coordinates": [3.16936, 43.61333]}, "tension_kv": 63, "puissance_mva": 100, "region": "OCC"}, {"asset_id": "htb_aura_0283", "nom": "Poste 63kV", "type": "poste_htb", "geometry": {"type": "Point", "coordinates": [5.21514, 45.90681]}, "tension_kv": 63, "puissance_mva": 100, "region": "AuRA"}, {"asset_id": "htb_aura_0284", "nom": "Poste 63kV", "type": "poste_htb", "geometry": {"type": "Point", "coordinates": [4.59074, 45.52001]}, "tension_kv": 63, "puissance_mva": 100, "region": "AuRA"}, {"asset_id": "htb_aura_0285", "nom": "Poste 63kV", "type": "poste_htb", "geometry": {"type": "Point", "coordinates": [4.6356, 45.53791]}, "tension_kv": 63, "puissance_mva": 100, "region": "AuRA"}, {"asset_id": "htb_aura_0286", "nom": "Poste 63kV", "type": "poste_htb", "geometry": {"type": "Point", "coordinates": [4.63921, 45.53794]}, "tension_kv": 63, "puissance_mva": 100, "region": "AuRA"}, {"asset_id": "htb_aura_0287", "nom": "Sous-Station de Rive de Gier", "type": "poste_htb", "geometry": {"type": "Point", "coordinates": [4.59686, 45.52216]}, "tension_kv": 63, "puissance_mva": 100, "region": "AuRA"}, {"asset_id": "htb_aura_0288", "nom": "Poste 63kV", "type": "poste_htb", "geometry": {"type": "Point", "coordinates": [4.79188, 45.59343]}, "tension_kv": 63, "puissance_mva": 100, "region": "AuRA"}, {"asset_id": "htb_corse_0289", "nom": "Sagone", "type": "poste_htb", "geometry": {"type": "Point", "coordinates": [8.7038, 42.12343]}, "tension_kv": 90, "puissance_mva": 120, "region": "Corse"}, {"asset_id": "htb_aura_0290", "nom": "Poste 63kV", "type": "poste_htb", "geometry": {"type": "Point", "coordinates": [5.05428, 45.32563]}, "tension_kv": 63, "puissance_mva": 100, "region": "AuRA"}, {"asset_id": "htb_aura_0291", "nom": "Poste 63kV", "type": "poste_htb", "geometry": {"type": "Point", "coordinates": [5.25956, 45.38357]}, "tension_kv": 63, "puissance_mva": 100, "region": "AuRA"}, {"asset_id": "htb_aura_0292", "nom": "Poste 63kV", "type": "poste_htb", "geometry": {"type": "Point", "coordinates": [5.43197, 45.4286]}, "tension_kv": 63, "puissance_mva": 100, "region": "AuRA"}, {"asset_id": "htb_aura_0293", "nom": "Source Haute Tension Boulieu Les Annonay", "type": "poste_htb", "geometry": {"type": "Point", "coordinates": [4.66878, 45.26514]}, "tension_kv": 63, "puissance_mva": 100, "region": "AuRA"}, {"asset_id": "htb_aura_0294", "nom": "Poste 63kV", "type": "poste_htb", "geometry": {"type": "Point", "coordinates": [4.80615, 45.16798]}, "tension_kv": 63, "puissance_mva": 100, "region": "AuRA"}, {"asset_id": "htb_aura_0295", "nom": "Poste 225kV", "type": "poste_htb", "geometry": {"type": "Point", "coordinates": [4.82353, 45.10959]}, "tension_kv": 225, "puissance_mva": 280, "region": "AuRA"}, {"asset_id": "htb_aura_0296", "nom": "Poste 63kV", "type": "poste_htb", "geometry": {"type": "Point", "coordinates": [4.87934, 44.98256]}, "tension_kv": 63, "puissance_mva": 100, "region": "AuRA"}, {"asset_id": "htb_aura_0297", "nom": "Poste 63kV", "type": "poste_htb", "geometry": {"type": "Point", "coordinates": [4.85941, 44.9343]}, "tension_kv": 63, "puissance_mva": 100, "region": "AuRA"}, {"asset_id": "htb_aura_0298", "nom": "Poste 63kV", "type": "poste_htb", "geometry": {"type": "Point", "coordinates": [4.85868, 44.91975]}, "tension_kv": 63, "puissance_mva": 100, "region": "AuRA"}, {"asset_id": "htb_aura_0299", "nom": "Valence", "type": "poste_htb", "geometry": {"type": "Point", "coordinates": [4.9271, 44.91794]}, "tension_kv": 225, "puissance_mva": 280, "region": "AuRA"}, {"asset_id": "htb_aura_0300", "nom": "La Vanelle", "type": "poste_htb", "geometry": {"type": "Point", "coordinates": [4.98324, 45.03516]}, "tension_kv": 63, "puissance_mva": 100, "region": "AuRA"}, {"asset_id": "htb_aura_0301", "nom": "Curson", "type": "poste_htb", "geometry": {"type": "Point", "coordinates": [4.93499, 45.05365]}, "tension_kv": 63, "puissance_mva": 100, "region": "AuRA"}, {"asset_id": "htb_aura_0302", "nom": "Poste 63kV", "type": "poste_htb", "geometry": {"type": "Point", "coordinates": [4.86559, 45.0507]}, "tension_kv": 63, "puissance_mva": 100, "region": "AuRA"}, {"asset_id": "htb_aura_0303", "nom": "Poste 63kV", "type": "poste_htb", "geometry": {"type": "Point", "coordinates": [4.81792, 45.13455]}, "tension_kv": 63, "puissance_mva": 100, "region": "AuRA"}, {"asset_id": "htb_aura_0304", "nom": "Poste 63kV", "type": "poste_htb", "geometry": {"type": "Point", "coordinates": [4.81587, 45.19787]}, "tension_kv": 63, "puissance_mva": 100, "region": "AuRA"}, {"asset_id": "htb_aura_0305", "nom": "Poste 63kV", "type": "poste_htb", "geometry": {"type": "Point", "coordinates": [4.85849, 45.26874]}, "tension_kv": 63, "puissance_mva": 100, "region": "AuRA"}, {"asset_id": "htb_aura_0306", "nom": "Salaise", "type": "poste_htb", "geometry": {"type": "Point", "coordinates": [4.80287, 45.35104]}, "tension_kv": 63, "puissance_mva": 100, "region": "AuRA"}, {"asset_id": "htb_aura_0307", "nom": "Poste 63kV", "type": "poste_htb", "geometry": {"type": "Point", "coordinates": [4.80088, 45.3485]}, "tension_kv": 63, "puissance_mva": 100, "region": "AuRA"}, {"asset_id": "htb_aura_0308", "nom": "Poste 63kV", "type": "poste_htb", "geometry": {"type": "Point", "coordinates": [4.79936, 45.34929]}, "tension_kv": 63, "puissance_mva": 100, "region": "AuRA"}, {"asset_id": "htb_aura_0309", "nom": "Poste 63kV", "type": "poste_htb", "geometry": {"type": "Point", "coordinates": [4.69011, 44.51981]}, "tension_kv": 63, "puissance_mva": 100, "region": "AuRA"}, {"asset_id": "htb_aura_0310", "nom": "Poste 63kV", "type": "poste_htb", "geometry": {"type": "Point", "coordinates": [4.75524, 45.36334]}, "tension_kv": 63, "puissance_mva": 100, "region": "AuRA"}, {"asset_id": "htb_aura_0311", "nom": "Poste 63kV", "type": "poste_htb", "geometry": {"type": "Point", "coordinates": [4.70284, 45.38375]}, "tension_kv": 63, "puissance_mva": 100, "region": "AuRA"}, {"asset_id": "htb_aura_0312", "nom": "Poste 63kV", "type": "poste_htb", "geometry": {"type": "Point", "coordinates": [4.77034, 45.43311]}, "tension_kv": 63, "puissance_mva": 100, "region": "AuRA"}, {"asset_id": "htb_aura_0313", "nom": "Poste 63kV", "type": "poste_htb", "geometry": {"type": "Point", "coordinates": [4.82495, 45.48774]}, "tension_kv": 63, "puissance_mva": 100, "region": "AuRA"}, {"asset_id": "htb_aura_0314", "nom": "Poste 63kV", "type": "poste_htb", "geometry": {"type": "Point", "coordinates": [4.82804, 45.49242]}, "tension_kv": 63, "puissance_mva": 100, "region": "AuRA"}, {"asset_id": "htb_aura_0315", "nom": "Poste 63kV", "type": "poste_htb", "geometry": {"type": "Point", "coordinates": [4.82509, 45.49818]}, "tension_kv": 63, "puissance_mva": 100, "region": "AuRA"}, {"asset_id": "htb_aura_0316", "nom": "Poste 63kV", "type": "poste_htb", "geometry": {"type": "Point", "coordinates": [5.11607, 45.50076]}, "tension_kv": 63, "puissance_mva": 100, "region": "AuRA"}, {"asset_id": "htb_aura_0317", "nom": "Poste 63kV", "type": "poste_htb", "geometry": {"type": "Point", "coordinates": [5.13793, 45.6306]}, "tension_kv": 63, "puissance_mva": 100, "region": "AuRA"}, {"asset_id": "htb_aura_0318", "nom": "Poste 63kV", "type": "poste_htb", "geometry": {"type": "Point", "coordinates": [5.12732, 45.64068]}, "tension_kv": 63, "puissance_mva": 100, "region": "AuRA"}, {"asset_id": "htb_aura_0319", "nom": "Poste 63kV", "type": "poste_htb", "geometry": {"type": "Point", "coordinates": [5.43169, 45.56849]}, "tension_kv": 63, "puissance_mva": 100, "region": "AuRA"}, {"asset_id": "htb_aura_0320", "nom": "Poste 63kV", "type": "poste_htb", "geometry": {"type": "Point", "coordinates": [5.27728, 45.59437]}, "tension_kv": 63, "puissance_mva": 100, "region": "AuRA"}, {"asset_id": "htb_aura_0321", "nom": "Poste 63kV", "type": "poste_htb", "geometry": {"type": "Point", "coordinates": [5.21186, 45.62808]}, "tension_kv": 63, "puissance_mva": 100, "region": "AuRA"}, {"asset_id": "htb_aura_0322", "nom": "Poste 63kV", "type": "poste_htb", "geometry": {"type": "Point", "coordinates": [5.16738, 45.74745]}, "tension_kv": 63, "puissance_mva": 100, "region": "AuRA"}, {"asset_id": "htb_aura_0323", "nom": "Poste 63kV", "type": "poste_htb", "geometry": {"type": "Point", "coordinates": [5.18411, 45.74877]}, "tension_kv": 63, "puissance_mva": 100, "region": "AuRA"}, {"asset_id": "htb_aura_0324", "nom": "Poste 63kV", "type": "poste_htb", "geometry": {"type": "Point", "coordinates": [5.35984, 45.95071]}, "tension_kv": 63, "puissance_mva": 100, "region": "AuRA"}, {"asset_id": "htb_aura_0325", "nom": "Moirans", "type": "poste_htb", "geometry": {"type": "Point", "coordinates": [5.55333, 45.32835]}, "tension_kv": 225, "puissance_mva": 280, "region": "AuRA"}, {"asset_id": "htb_aura_0326", "nom": "Poste 63kV", "type": "poste_htb", "geometry": {"type": "Point", "coordinates": [5.55334, 45.0831]}, "tension_kv": 63, "puissance_mva": 100, "region": "AuRA"}, {"asset_id": "htb_aura_0327", "nom": "Poste 63kV", "type": "poste_htb", "geometry": {"type": "Point", "coordinates": [5.0881, 45.03886]}, "tension_kv": 63, "puissance_mva": 100, "region": "AuRA"}, {"asset_id": "htb_aura_0328", "nom": "Poste 63kV", "type": "poste_htb", "geometry": {"type": "Point", "coordinates": [4.60629, 45.82489]}, "tension_kv": 63, "puissance_mva": 100, "region": "AuRA"}, {"asset_id": "htb_aura_0329", "nom": "Poste 63kV", "type": "poste_htb", "geometry": {"type": "Point", "coordinates": [4.44452, 45.88939]}, "tension_kv": 63, "puissance_mva": 100, "region": "AuRA"}, {"asset_id": "htb_aura_0330", "nom": "EDF de Montalieu", "type": "poste_htb", "geometry": {"type": "Point", "coordinates": [5.40252, 45.80741]}, "tension_kv": 63, "puissance_mva": 100, "region": "AuRA"}, {"asset_id": "htb_aura_0331", "nom": "du Verney", "type": "poste_htb", "geometry": {"type": "Point", "coordinates": [6.04686, 45.14974]}, "tension_kv": 63, "puissance_mva": 100, "region": "AuRA"}, {"asset_id": "htb_aura_0332", "nom": "Poste 63kV", "type": "poste_htb", "geometry": {"type": "Point", "coordinates": [4.84508, 45.67733]}, "tension_kv": 63, "puissance_mva": 100, "region": "AuRA"}, {"asset_id": "htb_aura_0333", "nom": "Poste 63kV", "type": "poste_htb", "geometry": {"type": "Point", "coordinates": [4.85489, 45.68263]}, "tension_kv": 63, "puissance_mva": 100, "region": "AuRA"}, {"asset_id": "htb_aura_0334", "nom": "d'Oullins", "type": "poste_htb", "geometry": {"type": "Point", "coordinates": [4.81963, 45.71071]}, "tension_kv": 225, "puissance_mva": 280, "region": "AuRA"}, {"asset_id": "htb_aura_0335", "nom": "Sous-Station de Sibelin", "type": "poste_htb", "geometry": {"type": "Point", "coordinates": [4.84436, 45.65271]}, "tension_kv": 63, "puissance_mva": 100, "region": "AuRA"}, {"asset_id": "htb_paca_0336", "nom": "Lambesc", "type": "poste_htb", "geometry": {"type": "Point", "coordinates": [5.25362, 43.64818]}, "tension_kv": 63, "puissance_mva": 100, "region": "PACA"}, {"asset_id": "htb_aura_0337", "nom": "Poste 63kV", "type": "poste_htb", "geometry": {"type": "Point", "coordinates": [5.70084, 45.14825]}, "tension_kv": 63, "puissance_mva": 100, "region": "AuRA"}, {"asset_id": "htb_aura_0338", "nom": "Poste 63kV", "type": "poste_htb", "geometry": {"type": "Point", "coordinates": [4.81956, 44.75752]}, "tension_kv": 63, "puissance_mva": 100, "region": "AuRA"}, {"asset_id": "htb_aura_0339", "nom": "Poste 63kV", "type": "poste_htb", "geometry": {"type": "Point", "coordinates": [4.79337, 44.81629]}, "tension_kv": 63, "puissance_mva": 100, "region": "AuRA"}, {"asset_id": "htb_paca_0340", "nom": "Avignon", "type": "poste_htb", "geometry": {"type": "Point", "coordinates": [4.85499, 43.94821]}, "tension_kv": 225, "puissance_mva": 280, "region": "PACA"}, {"asset_id": "htb_paca_0341", "nom": "Poste 63kV", "type": "poste_htb", "geometry": {"type": "Point", "coordinates": [4.86543, 43.98483]}, "tension_kv": 63, "puissance_mva": 100, "region": "PACA"}, {"asset_id": "htb_paca_0342", "nom": "Poste 63kV", "type": "poste_htb", "geometry": {"type": "Point", "coordinates": [4.84204, 44.13179]}, "tension_kv": 63, "puissance_mva": 100, "region": "PACA"}, {"asset_id": "htb_paca_0343", "nom": "Crémade", "type": "poste_htb", "geometry": {"type": "Point", "coordinates": [4.84098, 44.13299]}, "tension_kv": 63, "puissance_mva": 100, "region": "PACA"}, {"asset_id": "htb_paca_0344", "nom": "Poste 63kV", "type": "poste_htb", "geometry": {"type": "Point", "coordinates": [4.69296, 43.82448]}, "tension_kv": 63, "puissance_mva": 100, "region": "PACA"}, {"asset_id": "htb_paca_0345", "nom": "Chateaurenard", "type": "poste_htb", "geometry": {"type": "Point", "coordinates": [4.85686, 43.86425]}, "tension_kv": 225, "puissance_mva": 280, "region": "PACA"}, {"asset_id": "htb_paca_0346", "nom": "Poste 63kV", "type": "poste_htb", "geometry": {"type": "Point", "coordinates": [4.79173, 43.93693]}, "tension_kv": 63, "puissance_mva": 100, "region": "PACA"}, {"asset_id": "htb_paca_0347", "nom": "Poste 63kV", "type": "poste_htb", "geometry": {"type": "Point", "coordinates": [4.89322, 44.05964]}, "tension_kv": 63, "puissance_mva": 100, "region": "PACA"}, {"asset_id": "htb_paca_0348", "nom": "Poste 63kV", "type": "poste_htb", "geometry": {"type": "Point", "coordinates": [4.88496, 44.01281]}, "tension_kv": 63, "puissance_mva": 100, "region": "PACA"}, {"asset_id": "htb_paca_0349", "nom": "Poste 63kV", "type": "poste_htb", "geometry": {"type": "Point", "coordinates": [4.89806, 43.95968]}, "tension_kv": 63, "puissance_mva": 100, "region": "PACA"}, {"asset_id": "htb_aura_0350", "nom": "Logis-Neuf", "type": "poste_htb", "geometry": {"type": "Point", "coordinates": [4.79135, 44.67462]}, "tension_kv": 225, "puissance_mva": 280, "region": "AuRA"}, {"asset_id": "htb_aura_0351", "nom": "Poste 63kV", "type": "poste_htb", "geometry": {"type": "Point", "coordinates": [4.69188, 44.53973]}, "tension_kv": 63, "puissance_mva": 100, "region": "AuRA"}, {"asset_id": "htb_aura_0352", "nom": "Poste 63kV", "type": "poste_htb", "geometry": {"type": "Point", "coordinates": [4.74018, 44.56191]}, "tension_kv": 63, "puissance_mva": 100, "region": "AuRA"}, {"asset_id": "htb_aura_0353", "nom": "Montjoyer", "type": "poste_htb", "geometry": {"type": "Point", "coordinates": [4.86343, 44.47599]}, "tension_kv": 63, "puissance_mva": 100, "region": "AuRA"}, {"asset_id": "htb_paca_0354", "nom": "Phénix", "type": "poste_htb", "geometry": {"type": "Point", "coordinates": [4.71378, 44.15219]}, "tension_kv": 225, "puissance_mva": 280, "region": "PACA"}, {"asset_id": "htb_aura_0355", "nom": "Chabrillan", "type": "poste_htb", "geometry": {"type": "Point", "coordinates": [4.9459, 44.70021]}, "tension_kv": 225, "puissance_mva": 280, "region": "AuRA"}, {"asset_id": "htb_aura_0356", "nom": "Poste 63kV", "type": "poste_htb", "geometry": {"type": "Point", "coordinates": [5.00714, 44.72576]}, "tension_kv": 63, "puissance_mva": 100, "region": "AuRA"}, {"asset_id": "htb_aura_0357", "nom": "Belle-Etoile", "type": "poste_htb", "geometry": {"type": "Point", "coordinates": [4.84614, 45.69159]}, "tension_kv": 63, "puissance_mva": 100, "region": "AuRA"}, {"asset_id": "htb_aura_0358", "nom": "Poste 63kV", "type": "poste_htb", "geometry": {"type": "Point", "coordinates": [4.8291, 45.04519]}, "tension_kv": 63, "puissance_mva": 100, "region": "AuRA"}, {"asset_id": "htb_paca_0359", "nom": "Vinadio CP", "type": "poste_htb", "geometry": {"type": "Point", "coordinates": [7.19947, 44.30492]}, "tension_kv": 90, "puissance_mva": 120, "region": "PACA"}, {"asset_id": "htb_paca_0360", "nom": "Acceglio", "type": "poste_htb", "geometry": {"type": "Point", "coordinates": [7.01543, 44.47482]}, "tension_kv": 90, "puissance_mva": 120, "region": "PACA"}, {"asset_id": "htb_aura_0361", "nom": "Boudeyre", "type": "poste_htb", "geometry": {"type": "Point", "coordinates": [4.37293, 44.57551]}, "tension_kv": 225, "puissance_mva": 280, "region": "AuRA"}, {"asset_id": "htb_aura_0362", "nom": "Poste 63kV", "type": "poste_htb", "geometry": {"type": "Point", "coordinates": [3.85306, 44.73783]}, "tension_kv": 63, "puissance_mva": 100, "region": "AuRA"}, {"asset_id": "htb_aura_0363", "nom": "Poste 63kV", "type": "poste_htb", "geometry": {"type": "Point", "coordinates": [3.88526, 45.01079]}, "tension_kv": 63, "puissance_mva": 100, "region": "AuRA"}, {"asset_id": "htb_aura_0364", "nom": "Poste 63kV", "type": "poste_htb", "geometry": {"type": "Point", "coordinates": [4.02155, 44.95919]}, "tension_kv": 63, "puissance_mva": 100, "region": "AuRA"}, {"asset_id": "htb_occ_0365", "nom": "Poste 225kV", "type": "poste_htb", "geometry": {"type": "Point", "coordinates": [3.07394, 44.92203]}, "tension_kv": 225, "puissance_mva": 280, "region": "OCC"}, {"asset_id": "htb_occ_0366", "nom": "Grandval", "type": "poste_htb", "geometry": {"type": "Point", "coordinates": [3.07241, 44.92144]}, "tension_kv": 225, "puissance_mva": 280, "region": "OCC"}, {"asset_id": "htb_occ_0367", "nom": "Savignac", "type": "poste_htb", "geometry": {"type": "Point", "coordinates": [3.03375, 45.10246]}, "tension_kv": 225, "puissance_mva": 280, "region": "OCC"}, {"asset_id": "htb_occ_0368", "nom": "Poste 63kV", "type": "poste_htb", "geometry": {"type": "Point", "coordinates": [3.10968, 45.03534]}, "tension_kv": 63, "puissance_mva": 100, "region": "OCC"}, {"asset_id": "htb_occ_0369", "nom": "Poste 63kV", "type": "poste_htb", "geometry": {"type": "Point", "coordinates": [3.09293, 45.02906]}, "tension_kv": 63, "puissance_mva": 100, "region": "OCC"}, {"asset_id": "htb_aura_0370", "nom": "Poste 63kV", "type": "poste_htb", "geometry": {"type": "Point", "coordinates": [3.96351, 45.05198]}, "tension_kv": 63, "puissance_mva": 100, "region": "AuRA"}, {"asset_id": "htb_aura_0371", "nom": "Poste 63kV", "type": "poste_htb", "geometry": {"type": "Point", "coordinates": [3.90781, 45.04892]}, "tension_kv": 63, "puissance_mva": 100, "region": "AuRA"}, {"asset_id": "htb_aura_0372", "nom": "Poste 63kV", "type": "poste_htb", "geometry": {"type": "Point", "coordinates": [4.12556, 45.11787]}, "tension_kv": 63, "puissance_mva": 100, "region": "AuRA"}, {"asset_id": "htb_aura_0373", "nom": "Poste 63kV", "type": "poste_htb", "geometry": {"type": "Point", "coordinates": [4.2854, 45.07366]}, "tension_kv": 63, "puissance_mva": 100, "region": "AuRA"}, {"asset_id": "htb_aura_0374", "nom": "Poste 63kV", "type": "poste_htb", "geometry": {"type": "Point", "coordinates": [3.78073, 45.10762]}, "tension_kv": 63, "puissance_mva": 100, "region": "AuRA"}, {"asset_id": "htb_aura_0375", "nom": "Source Bellevue La Montagne", "type": "poste_htb", "geometry": {"type": "Point", "coordinates": [3.81502, 45.22031]}, "tension_kv": 63, "puissance_mva": 100, "region": "AuRA"}, {"asset_id": "htb_aura_0376", "nom": "Poste 63kV", "type": "poste_htb", "geometry": {"type": "Point", "coordinates": [3.7114, 45.96614]}, "tension_kv": 63, "puissance_mva": 100, "region": "AuRA"}, {"asset_id": "htb_aura_0377", "nom": "Poste 63kV", "type": "poste_htb", "geometry": {"type": "Point", "coordinates": [3.14688, 45.25086]}, "tension_kv": 63, "puissance_mva": 100, "region": "AuRA"}, {"asset_id": "htb_occ_0378", "nom": "Poste 63kV", "type": "poste_htb", "geometry": {"type": "Point", "coordinates": [3.02702, 45.11033]}, "tension_kv": 63, "puissance_mva": 100, "region": "OCC"}, {"asset_id": "htb_aura_0379", "nom": "Poste 63kV", "type": "poste_htb", "geometry": {"type": "Point", "coordinates": [3.49293, 45.20042]}, "tension_kv": 63, "puissance_mva": 100, "region": "AuRA"}, {"asset_id": "htb_aura_0380", "nom": "Poste 63kV", "type": "poste_htb", "geometry": {"type": "Point", "coordinates": [3.49758, 45.11514]}, "tension_kv": 63, "puissance_mva": 100, "region": "AuRA"}, {"asset_id": "htb_aura_0381", "nom": "Ancelpont", "type": "poste_htb", "geometry": {"type": "Point", "coordinates": [3.63516, 44.82181]}, "tension_kv": 63, "puissance_mva": 100, "region": "AuRA"}, {"asset_id": "htb_occ_0382", "nom": "Margeride", "type": "poste_htb", "geometry": {"type": "Point", "coordinates": [3.28154, 44.79151]}, "tension_kv": 225, "puissance_mva": 280, "region": "OCC"}, {"asset_id": "htb_aura_0383", "nom": "Poste 63kV", "type": "poste_htb", "geometry": {"type": "Point", "coordinates": [3.33999, 45.39477]}, "tension_kv": 63, "puissance_mva": 100, "region": "AuRA"}, {"asset_id": "htb_aura_0384", "nom": "Poste 63kV", "type": "poste_htb", "geometry": {"type": "Point", "coordinates": [3.25248, 45.56311]}, "tension_kv": 63, "puissance_mva": 100, "region": "AuRA"}, {"asset_id": "htb_aura_0385", "nom": "d'Enval", "type": "poste_htb", "geometry": {"type": "Point", "coordinates": [2.99942, 45.76533]}, "tension_kv": 225, "puissance_mva": 280, "region": "AuRA"}, {"asset_id": "htb_aura_0386", "nom": "Prauliat", "type": "poste_htb", "geometry": {"type": "Point", "coordinates": [3.09612, 45.74582]}, "tension_kv": 63, "puissance_mva": 100, "region": "AuRA"}, {"asset_id": "htb_aura_0387", "nom": "Poste 63kV", "type": "poste_htb", "geometry": {"type": "Point", "coordinates": [3.0875, 45.57387]}, "tension_kv": 63, "puissance_mva": 100, "region": "AuRA"}, {"asset_id": "htb_corse_0388", "nom": "transition de Bastia", "type": "poste_htb", "geometry": {"type": "Point", "coordinates": [9.43307, 42.66589]}, "tension_kv": 225, "puissance_mva": 280, "region": "Corse"}, {"asset_id": "htb_corse_0389", "nom": "Lucciana SACOI Static Inverter Plant", "type": "poste_htb", "geometry": {"type": "Point", "coordinates": [9.45032, 42.52849]}, "tension_kv": 225, "puissance_mva": 280, "region": "Corse"}, {"asset_id": "htb_corse_0390", "nom": "Furiani", "type": "poste_htb", "geometry": {"type": "Point", "coordinates": [9.42439, 42.66362]}, "tension_kv": 90, "puissance_mva": 120, "region": "Corse"}, {"asset_id": "htb_aura_0391", "nom": "La Mouche", "type": "poste_htb", "geometry": {"type": "Point", "coordinates": [4.84431, 45.72014]}, "tension_kv": 225, "puissance_mva": 280, "region": "AuRA"}, {"asset_id": "htb_aura_0392", "nom": "Volvic", "type": "poste_htb", "geometry": {"type": "Point", "coordinates": [3.06589, 45.88942]}, "tension_kv": 225, "puissance_mva": 280, "region": "AuRA"}, {"asset_id": "htb_aura_0393", "nom": "Poste 63kV", "type": "poste_htb", "geometry": {"type": "Point", "coordinates": [3.10947, 45.84406]}, "tension_kv": 63, "puissance_mva": 100, "region": "AuRA"}, {"asset_id": "htb_aura_0394", "nom": "Ladoux", "type": "poste_htb", "geometry": {"type": "Point", "coordinates": [3.11846, 45.84409]}, "tension_kv": 63, "puissance_mva": 100, "region": "AuRA"}, {"asset_id": "htb_aura_0395", "nom": "Flamina", "type": "poste_htb", "geometry": {"type": "Point", "coordinates": [3.13255, 45.81339]}, "tension_kv": 63, "puissance_mva": 100, "region": "AuRA"}, {"asset_id": "htb_aura_0396", "nom": "des Gravanches", "type": "poste_htb", "geometry": {"type": "Point", "coordinates": [3.13457, 45.80489]}, "tension_kv": 63, "puissance_mva": 100, "region": "AuRA"}, {"asset_id": "htb_aura_0397", "nom": "B20", "type": "poste_htb", "geometry": {"type": "Point", "coordinates": [3.10735, 45.79615]}, "tension_kv": 63, "puissance_mva": 100, "region": "AuRA"}, {"asset_id": "htb_aura_0398", "nom": "Riom", "type": "poste_htb", "geometry": {"type": "Point", "coordinates": [3.12267, 45.88391]}, "tension_kv": 63, "puissance_mva": 100, "region": "AuRA"}, {"asset_id": "htb_aura_0399", "nom": "Poste 63kV", "type": "poste_htb", "geometry": {"type": "Point", "coordinates": [3.64129, 45.87328]}, "tension_kv": 63, "puissance_mva": 100, "region": "AuRA"}, {"asset_id": "htb_corse_0400", "nom": "Taglio-Isolaccio", "type": "poste_htb", "geometry": {"type": "Point", "coordinates": [9.5024, 42.44059]}, "tension_kv": 90, "puissance_mva": 120, "region": "Corse"}, {"asset_id": "htb_corse_0401", "nom": "Cervione", "type": "poste_htb", "geometry": {"type": "Point", "coordinates": [9.54008, 42.31455]}, "tension_kv": 90, "puissance_mva": 120, "region": "Corse"}, {"asset_id": "htb_corse_0402", "nom": "Ghisonaccia", "type": "poste_htb", "geometry": {"type": "Point", "coordinates": [9.37052, 42.06515]}, "tension_kv": 90, "puissance_mva": 120, "region": "Corse"}, {"asset_id": "htb_corse_0403", "nom": "Corte", "type": "poste_htb", "geometry": {"type": "Point", "coordinates": [9.1659, 42.3012]}, "tension_kv": 90, "puissance_mva": 120, "region": "Corse"}, {"asset_id": "htb_corse_0404", "nom": "Calvi", "type": "poste_htb", "geometry": {"type": "Point", "coordinates": [8.74679, 42.56067]}, "tension_kv": 90, "puissance_mva": 120, "region": "Corse"}, {"asset_id": "htb_corse_0405", "nom": "L'Île-Rousse", "type": "poste_htb", "geometry": {"type": "Point", "coordinates": [8.93722, 42.62629]}, "tension_kv": 90, "puissance_mva": 120, "region": "Corse"}, {"asset_id": "htb_paca_0406", "nom": "Poste 225kV", "type": "poste_htb", "geometry": {"type": "Point", "coordinates": [4.89969, 43.45335]}, "tension_kv": 225, "puissance_mva": 280, "region": "PACA"}, {"asset_id": "htb_corse_0407", "nom": "Corscia", "type": "poste_htb", "geometry": {"type": "Point", "coordinates": [9.04459, 42.34242]}, "tension_kv": 90, "puissance_mva": 120, "region": "Corse"}, {"asset_id": "htb_paca_0408", "nom": "Mougins", "type": "poste_htb", "geometry": {"type": "Point", "coordinates": [7.00791, 43.58426]}, "tension_kv": 225, "puissance_mva": 280, "region": "PACA"}, {"asset_id": "htb_aura_0409", "nom": "Poste 63kV", "type": "poste_htb", "geometry": {"type": "Point", "coordinates": [4.40383, 44.60231]}, "tension_kv": 63, "puissance_mva": 100, "region": "AuRA"}, {"asset_id": "htb_occ_0410", "nom": "Lunel-Viel", "type": "poste_htb", "geometry": {"type": "Point", "coordinates": [4.08873, 43.68051]}, "tension_kv": 63, "puissance_mva": 100, "region": "OCC"}, {"asset_id": "htb_aura_0411", "nom": "du Rivier", "type": "poste_htb", "geometry": {"type": "Point", "coordinates": [6.04373, 45.20512]}, "tension_kv": 63, "puissance_mva": 100, "region": "AuRA"}, {"asset_id": "htb_aura_0412", "nom": "Froges", "type": "poste_htb", "geometry": {"type": "Point", "coordinates": [5.91722, 45.26589]}, "tension_kv": 225, "puissance_mva": 280, "region": "AuRA"}, {"asset_id": "htb_aura_0413", "nom": "Poste 63kV", "type": "poste_htb", "geometry": {"type": "Point", "coordinates": [5.71201, 45.05294]}, "tension_kv": 63, "puissance_mva": 100, "region": "AuRA"}, {"asset_id": "htb_paca_0414", "nom": "Poste 63kV", "type": "poste_htb", "geometry": {"type": "Point", "coordinates": [5.93665, 43.12696]}, "tension_kv": 63, "puissance_mva": 100, "region": "PACA"}, {"asset_id": "htb_aura_0415", "nom": "Poste 63kV", "type": "poste_htb", "geometry": {"type": "Point", "coordinates": [5.57059, 45.37681]}, "tension_kv": 63, "puissance_mva": 100, "region": "AuRA"}, {"asset_id": "htb_aura_0416", "nom": "Poste 63kV", "type": "poste_htb", "geometry": {"type": "Point", "coordinates": [5.49091, 45.36462]}, "tension_kv": 63, "puissance_mva": 100, "region": "AuRA"}, {"asset_id": "htb_aura_0417", "nom": "Poste 63kV", "type": "poste_htb", "geometry": {"type": "Point", "coordinates": [5.66524, 45.23399]}, "tension_kv": 63, "puissance_mva": 100, "region": "AuRA"}, {"asset_id": "htb_aura_0418", "nom": "Poste 63kV", "type": "poste_htb", "geometry": {"type": "Point", "coordinates": [5.60898, 45.3075]}, "tension_kv": 63, "puissance_mva": 100, "region": "AuRA"}, {"asset_id": "htb_aura_0419", "nom": "Poste 63kV", "type": "poste_htb", "geometry": {"type": "Point", "coordinates": [5.6279, 45.29322]}, "tension_kv": 63, "puissance_mva": 100, "region": "AuRA"}, {"asset_id": "htb_aura_0420", "nom": "Aussois", "type": "poste_htb", "geometry": {"type": "Point", "coordinates": [6.71222, 45.21475]}, "tension_kv": 225, "puissance_mva": 280, "region": "AuRA"}, {"asset_id": "htb_aura_0421", "nom": "La Marnise", "type": "poste_htb", "geometry": {"type": "Point", "coordinates": [5.69629, 45.72804]}, "tension_kv": 225, "puissance_mva": 280, "region": "AuRA"}, {"asset_id": "htb_paca_0422", "nom": "Sisteron", "type": "poste_htb", "geometry": {"type": "Point", "coordinates": [5.92141, 44.21264]}, "tension_kv": 225, "puissance_mva": 280, "region": "PACA"}, {"asset_id": "htb_paca_0423", "nom": "Lingostière", "type": "poste_htb", "geometry": {"type": "Point", "coordinates": [7.18817, 43.71878]}, "tension_kv": 225, "puissance_mva": 280, "region": "PACA"}, {"asset_id": "htb_paca_0424", "nom": "Saint-Auban", "type": "poste_htb", "geometry": {"type": "Point", "coordinates": [6.00298, 44.07435]}, "tension_kv": 225, "puissance_mva": 280, "region": "PACA"}, {"asset_id": "htb_aura_0425", "nom": "Poste 63kV", "type": "poste_htb", "geometry": {"type": "Point", "coordinates": [4.36711, 44.65068]}, "tension_kv": 63, "puissance_mva": 100, "region": "AuRA"}, {"asset_id": "htb_paca_0426", "nom": "Tore Supra", "type": "poste_htb", "geometry": {"type": "Point", "coordinates": [5.76646, 43.70169]}, "tension_kv": 400, "puissance_mva": 500, "region": "PACA"}, {"asset_id": "htb_aura_0427", "nom": "Vieux-Moulins", "type": "poste_htb", "geometry": {"type": "Point", "coordinates": [6.37578, 45.2709]}, "tension_kv": 225, "puissance_mva": 280, "region": "AuRA"}, {"asset_id": "htb_aura_0428", "nom": "La Coche", "type": "poste_htb", "geometry": {"type": "Point", "coordinates": [6.50997, 45.4964]}, "tension_kv": 400, "puissance_mva": 500, "region": "AuRA"}, {"asset_id": "htb_aura_0429", "nom": "La Praz Saint-André", "type": "poste_htb", "geometry": {"type": "Point", "coordinates": [6.58371, 45.20542]}, "tension_kv": 400, "puissance_mva": 500, "region": "AuRA"}, {"asset_id": "htb_aura_0430", "nom": "La Saussaz II", "type": "poste_htb", "geometry": {"type": "Point", "coordinates": [6.47644, 45.21021]}, "tension_kv": 225, "puissance_mva": 280, "region": "AuRA"}, {"asset_id": "htb_aura_0431", "nom": "Vaujany", "type": "poste_htb", "geometry": {"type": "Point", "coordinates": [6.05071, 45.1455]}, "tension_kv": 400, "puissance_mva": 500, "region": "AuRA"}, {"asset_id": "htb_paca_0432", "nom": "Favary", "type": "poste_htb", "geometry": {"type": "Point", "coordinates": [5.61581, 43.47091]}, "tension_kv": 63, "puissance_mva": 100, "region": "PACA"}, {"asset_id": "htb_paca_0433", "nom": "Poste 225kV", "type": "poste_htb", "geometry": {"type": "Point", "coordinates": [5.02245, 43.35869]}, "tension_kv": 225, "puissance_mva": 280, "region": "PACA"}, {"asset_id": "htb_paca_0434", "nom": "Port-de-Bouc", "type": "poste_htb", "geometry": {"type": "Point", "coordinates": [4.99192, 43.41537]}, "tension_kv": 225, "puissance_mva": 280, "region": "PACA"}, {"asset_id": "htb_paca_0435", "nom": "Saint-Chamas", "type": "poste_htb", "geometry": {"type": "Point", "coordinates": [5.07125, 43.52763]}, "tension_kv": 225, "puissance_mva": 280, "region": "PACA"}, {"asset_id": "htb_paca_0436", "nom": "Roumoules", "type": "poste_htb", "geometry": {"type": "Point", "coordinates": [6.15758, 43.78901]}, "tension_kv": 225, "puissance_mva": 280, "region": "PACA"}, {"asset_id": "htb_paca_0437", "nom": "Poste 225kV", "type": "poste_htb", "geometry": {"type": "Point", "coordinates": [5.20511, 43.71567]}, "tension_kv": 225, "puissance_mva": 280, "region": "PACA"}, {"asset_id": "htb_aura_0438", "nom": "Barjac", "type": "poste_htb", "geometry": {"type": "Point", "coordinates": [4.34337, 44.31478]}, "tension_kv": 225, "puissance_mva": 280, "region": "AuRA"}, {"asset_id": "htb_aura_0439", "nom": "Cordéac", "type": "poste_htb", "geometry": {"type": "Point", "coordinates": [5.85785, 44.83368]}, "tension_kv": 225, "puissance_mva": 280, "region": "AuRA"}, {"asset_id": "htb_aura_0440", "nom": "du Sautet", "type": "poste_htb", "geometry": {"type": "Point", "coordinates": [5.90856, 44.81632]}, "tension_kv": 225, "puissance_mva": 280, "region": "AuRA"}, {"asset_id": "htb_aura_0441", "nom": "Pied-de-Borne", "type": "poste_htb", "geometry": {"type": "Point", "coordinates": [3.98597, 44.47896]}, "tension_kv": 225, "puissance_mva": 280, "region": "AuRA"}, {"asset_id": "htb_aura_0442", "nom": "Pont-Escoffier", "type": "poste_htb", "geometry": {"type": "Point", "coordinates": [6.06957, 45.00305]}, "tension_kv": 225, "puissance_mva": 280, "region": "AuRA"}, {"asset_id": "htb_aura_0443", "nom": "Grand-Coeur", "type": "poste_htb", "geometry": {"type": "Point", "coordinates": [6.48835, 45.51584]}, "tension_kv": 225, "puissance_mva": 280, "region": "AuRA"}, {"asset_id": "htb_aura_0444", "nom": "des Brévières", "type": "poste_htb", "geometry": {"type": "Point", "coordinates": [6.9246, 45.50427]}, "tension_kv": 225, "puissance_mva": 280, "region": "AuRA"}, {"asset_id": "htb_aura_0445", "nom": "Serrières", "type": "poste_htb", "geometry": {"type": "Point", "coordinates": [5.84181, 45.88729]}, "tension_kv": 225, "puissance_mva": 280, "region": "AuRA"}, {"asset_id": "htb_paca_0446", "nom": "Mouissonnes", "type": "poste_htb", "geometry": {"type": "Point", "coordinates": [5.02286, 43.92152]}, "tension_kv": 225, "puissance_mva": 280, "region": "PACA"}, {"asset_id": "htb_paca_0447", "nom": "Vins", "type": "poste_htb", "geometry": {"type": "Point", "coordinates": [6.11255, 43.43588]}, "tension_kv": 225, "puissance_mva": 280, "region": "PACA"}, {"asset_id": "htb_aura_0448", "nom": "Bollène", "type": "poste_htb", "geometry": {"type": "Point", "coordinates": [4.73526, 44.3034]}, "tension_kv": 225, "puissance_mva": 280, "region": "AuRA"}, {"asset_id": "htb_paca_0449", "nom": "Poste 63kV", "type": "poste_htb", "geometry": {"type": "Point", "coordinates": [6.22357, 44.66225]}, "tension_kv": 63, "puissance_mva": 100, "region": "PACA"}, {"asset_id": "htb_paca_0450", "nom": "Poste 225kV", "type": "poste_htb", "geometry": {"type": "Point", "coordinates": [6.05983, 44.44735]}, "tension_kv": 225, "puissance_mva": 280, "region": "PACA"}, {"asset_id": "htb_paca_0451", "nom": "Poste 63kV", "type": "poste_htb", "geometry": {"type": "Point", "coordinates": [6.62812, 44.37955]}, "tension_kv": 63, "puissance_mva": 100, "region": "PACA"}, {"asset_id": "htb_paca_0452", "nom": "Poste 63kV", "type": "poste_htb", "geometry": {"type": "Point", "coordinates": [6.32495, 44.37592]}, "tension_kv": 63, "puissance_mva": 100, "region": "PACA"}, {"asset_id": "htb_paca_0453", "nom": "Embrun", "type": "poste_htb", "geometry": {"type": "Point", "coordinates": [6.50571, 44.5646]}, "tension_kv": 63, "puissance_mva": 100, "region": "PACA"}, {"asset_id": "htb_paca_0454", "nom": "Briançon", "type": "poste_htb", "geometry": {"type": "Point", "coordinates": [6.61628, 44.86607]}, "tension_kv": 63, "puissance_mva": 100, "region": "PACA"}, {"asset_id": "htb_paca_0455", "nom": "Poste 63kV", "type": "poste_htb", "geometry": {"type": "Point", "coordinates": [6.61571, 44.65782]}, "tension_kv": 63, "puissance_mva": 100, "region": "PACA"}, {"asset_id": "htb_paca_0456", "nom": "Poste 63kV", "type": "poste_htb", "geometry": {"type": "Point", "coordinates": [6.68618, 44.58567]}, "tension_kv": 63, "puissance_mva": 100, "region": "PACA"}, {"asset_id": "htb_paca_0457", "nom": "Serre-Barbin", "type": "poste_htb", "geometry": {"type": "Point", "coordinates": [6.54439, 44.95581]}, "tension_kv": 63, "puissance_mva": 100, "region": "PACA"}, {"asset_id": "htb_paca_0458", "nom": "L'Argentière la Bessée", "type": "poste_htb", "geometry": {"type": "Point", "coordinates": [6.55962, 44.79105]}, "tension_kv": 225, "puissance_mva": 280, "region": "PACA"}, {"asset_id": "htb_aura_0459", "nom": "Poste 63kV", "type": "poste_htb", "geometry": {"type": "Point", "coordinates": [5.78359, 44.91388]}, "tension_kv": 63, "puissance_mva": 100, "region": "AuRA"}, {"asset_id": "htb_paca_0460", "nom": "Poste 63kV", "type": "poste_htb", "geometry": {"type": "Point", "coordinates": [5.91695, 44.34088]}, "tension_kv": 63, "puissance_mva": 100, "region": "PACA"}, {"asset_id": "htb_paca_0461", "nom": "Poste 63kV", "type": "poste_htb", "geometry": {"type": "Point", "coordinates": [5.80899, 44.5305]}, "tension_kv": 63, "puissance_mva": 100, "region": "PACA"}, {"asset_id": "htb_paca_0462", "nom": "Poste 63kV", "type": "poste_htb", "geometry": {"type": "Point", "coordinates": [5.7613, 44.34476]}, "tension_kv": 63, "puissance_mva": 100, "region": "PACA"}, {"asset_id": "htb_paca_0463", "nom": "Centrale hydroélectrique de La Brillanne", "type": "poste_htb", "geometry": {"type": "Point", "coordinates": [5.86404, 43.87735]}, "tension_kv": 63, "puissance_mva": 100, "region": "PACA"}, {"asset_id": "htb_paca_0464", "nom": "Poste 63kV", "type": "poste_htb", "geometry": {"type": "Point", "coordinates": [5.85833, 43.85459]}, "tension_kv": 63, "puissance_mva": 100, "region": "PACA"}, {"asset_id": "htb_paca_0465", "nom": "Poste 63kV", "type": "poste_htb", "geometry": {"type": "Point", "coordinates": [5.74194, 44.00229]}, "tension_kv": 63, "puissance_mva": 100, "region": "PACA"}, {"asset_id": "htb_occ_0466", "nom": "Poste 63kV", "type": "poste_htb", "geometry": {"type": "Point", "coordinates": [3.27868, 44.79509]}, "tension_kv": 63, "puissance_mva": 100, "region": "OCC"}, {"asset_id": "htb_occ_0467", "nom": "Poste 63kV", "type": "poste_htb", "geometry": {"type": "Point", "coordinates": [3.27338, 44.79675]}, "tension_kv": 63, "puissance_mva": 100, "region": "OCC"}, {"asset_id": "htb_paca_0468", "nom": "Poste 63kV", "type": "poste_htb", "geometry": {"type": "Point", "coordinates": [5.86771, 44.34553]}, "tension_kv": 63, "puissance_mva": 100, "region": "PACA"}, {"asset_id": "htb_paca_0469", "nom": "Poste 63kV", "type": "poste_htb", "geometry": {"type": "Point", "coordinates": [5.75657, 43.86696]}, "tension_kv": 63, "puissance_mva": 100, "region": "PACA"}, {"asset_id": "htb_paca_0470", "nom": "Coudon", "type": "poste_htb", "geometry": {"type": "Point", "coordinates": [5.97277, 43.15787]}, "tension_kv": 225, "puissance_mva": 280, "region": "PACA"}, {"asset_id": "htb_paca_0471", "nom": "Poste 63kV", "type": "poste_htb", "geometry": {"type": "Point", "coordinates": [5.96375, 43.13129]}, "tension_kv": 63, "puissance_mva": 100, "region": "PACA"}, {"asset_id": "htb_paca_0472", "nom": "Poste 63kV", "type": "poste_htb", "geometry": {"type": "Point", "coordinates": [5.97854, 43.38455]}, "tension_kv": 63, "puissance_mva": 100, "region": "PACA"}, {"asset_id": "htb_paca_0473", "nom": "Poste 63kV", "type": "poste_htb", "geometry": {"type": "Point", "coordinates": [5.6174, 43.36386]}, "tension_kv": 63, "puissance_mva": 100, "region": "PACA"}, {"asset_id": "htb_paca_0474", "nom": "Poste 225kV", "type": "poste_htb", "geometry": {"type": "Point", "coordinates": [5.60241, 43.47814]}, "tension_kv": 225, "puissance_mva": 280, "region": "PACA"}, {"asset_id": "htb_paca_0475", "nom": "Poste 63kV", "type": "poste_htb", "geometry": {"type": "Point", "coordinates": [5.35566, 43.54415]}, "tension_kv": 63, "puissance_mva": 100, "region": "PACA"}, {"asset_id": "htb_paca_0476", "nom": "Pas-des-Lanciers", "type": "poste_htb", "geometry": {"type": "Point", "coordinates": [5.25317, 43.41222]}, "tension_kv": 63, "puissance_mva": 100, "region": "PACA"}, {"asset_id": "htb_paca_0477", "nom": "Salon-Croix Blanche", "type": "poste_htb", "geometry": {"type": "Point", "coordinates": [5.11206, 43.63932]}, "tension_kv": 63, "puissance_mva": 100, "region": "PACA"}, {"asset_id": "htb_paca_0478", "nom": "Poste 63kV", "type": "poste_htb", "geometry": {"type": "Point", "coordinates": [5.18643, 43.72993]}, "tension_kv": 63, "puissance_mva": 100, "region": "PACA"}, {"asset_id": "htb_paca_0479", "nom": "Poste 63kV", "type": "poste_htb", "geometry": {"type": "Point", "coordinates": [5.03636, 43.85053]}, "tension_kv": 63, "puissance_mva": 100, "region": "PACA"}, {"asset_id": "htb_paca_0480", "nom": "Poste 63kV", "type": "poste_htb", "geometry": {"type": "Point", "coordinates": [4.96828, 43.9238]}, "tension_kv": 63, "puissance_mva": 100, "region": "PACA"}, {"asset_id": "htb_paca_0481", "nom": "Poste 63kV", "type": "poste_htb", "geometry": {"type": "Point", "coordinates": [4.92185, 43.89659]}, "tension_kv": 63, "puissance_mva": 100, "region": "PACA"}, {"asset_id": "htb_aura_0482", "nom": "RFF de Chateauneuf", "type": "poste_htb", "geometry": {"type": "Point", "coordinates": [4.70831, 44.48401]}, "tension_kv": 63, "puissance_mva": 100, "region": "AuRA"}, {"asset_id": "htb_aura_0483", "nom": "Poste 63kV", "type": "poste_htb", "geometry": {"type": "Point", "coordinates": [4.688, 44.46527]}, "tension_kv": 63, "puissance_mva": 100, "region": "AuRA"}, {"asset_id": "htb_occ_0484", "nom": "Joncels", "type": "poste_htb", "geometry": {"type": "Point", "coordinates": [3.19603, 43.73664]}, "tension_kv": 63, "puissance_mva": 100, "region": "OCC"}, {"asset_id": "htb_paca_0485", "nom": "d'Arles", "type": "poste_htb", "geometry": {"type": "Point", "coordinates": [4.64869, 43.6621]}, "tension_kv": 63, "puissance_mva": 100, "region": "PACA"}, {"asset_id": "htb_paca_0486", "nom": "DIGNE", "type": "poste_htb", "geometry": {"type": "Point", "coordinates": [6.2292, 44.09227]}, "tension_kv": 63, "puissance_mva": 100, "region": "PACA"}, {"asset_id": "htb_occ_0487", "nom": "Ruffe", "type": "poste_htb", "geometry": {"type": "Point", "coordinates": [3.17842, 43.68571]}, "tension_kv": 63, "puissance_mva": 100, "region": "OCC"}, {"asset_id": "htb_occ_0488", "nom": "Poste 63kV", "type": "poste_htb", "geometry": {"type": "Point", "coordinates": [3.17489, 43.5589]}, "tension_kv": 63, "puissance_mva": 100, "region": "OCC"}, {"asset_id": "htb_occ_0489", "nom": "Poste 63kV", "type": "poste_htb", "geometry": {"type": "Point", "coordinates": [3.04325, 43.41957]}, "tension_kv": 63, "puissance_mva": 100, "region": "OCC"}, {"asset_id": "htb_occ_0490", "nom": "Poste 63kV", "type": "poste_htb", "geometry": {"type": "Point", "coordinates": [3.0905, 43.43646]}, "tension_kv": 63, "puissance_mva": 100, "region": "OCC"}, {"asset_id": "htb_aura_0491", "nom": "Poste 63kV", "type": "poste_htb", "geometry": {"type": "Point", "coordinates": [4.24729, 45.63882]}, "tension_kv": 63, "puissance_mva": 100, "region": "AuRA"}, {"asset_id": "htb_paca_0492", "nom": "Poste 63kV", "type": "poste_htb", "geometry": {"type": "Point", "coordinates": [6.8539, 44.06724]}, "tension_kv": 63, "puissance_mva": 100, "region": "PACA"}, {"asset_id": "htb_aura_0493", "nom": "Poste 63kV", "type": "poste_htb", "geometry": {"type": "Point", "coordinates": [6.27091, 45.24049]}, "tension_kv": 63, "puissance_mva": 100, "region": "AuRA"}, {"asset_id": "htb_aura_0494", "nom": "Poste 63kV", "type": "poste_htb", "geometry": {"type": "Point", "coordinates": [4.10955, 44.4267]}, "tension_kv": 63, "puissance_mva": 100, "region": "AuRA"}, {"asset_id": "htb_aura_0495", "nom": "Plantades", "type": "poste_htb", "geometry": {"type": "Point", "coordinates": [4.70866, 44.36833]}, "tension_kv": 63, "puissance_mva": 100, "region": "AuRA"}, {"asset_id": "htb_aura_0496", "nom": "Poste 63kV", "type": "poste_htb", "geometry": {"type": "Point", "coordinates": [4.73012, 45.98726]}, "tension_kv": 63, "puissance_mva": 100, "region": "AuRA"}, {"asset_id": "htb_occ_0497", "nom": "Saint-Martin-de-Londres", "type": "poste_htb", "geometry": {"type": "Point", "coordinates": [3.73875, 43.78124]}, "tension_kv": 63, "puissance_mva": 100, "region": "OCC"}, {"asset_id": "htb_occ_0498", "nom": "Coulondres", "type": "poste_htb", "geometry": {"type": "Point", "coordinates": [3.82157, 43.70446]}, "tension_kv": 63, "puissance_mva": 100, "region": "OCC"}, {"asset_id": "htb_aura_0499", "nom": "de la Bronsonnière", "type": "poste_htb", "geometry": {"type": "Point", "coordinates": [6.54859, 45.20611]}, "tension_kv": 63, "puissance_mva": 100, "region": "AuRA"}, {"asset_id": "htb_aura_0500", "nom": "Orelle", "type": "poste_htb", "geometry": {"type": "Point", "coordinates": [6.5785, 45.20468]}, "tension_kv": 225, "puissance_mva": 280, "region": "AuRA"}, {"asset_id": "htb_aura_0501", "nom": "P.C. Terre Froide", "type": "poste_htb", "geometry": {"type": "Point", "coordinates": [6.66864, 45.19499]}, "tension_kv": 63, "puissance_mva": 100, "region": "AuRA"}, {"asset_id": "htb_aura_0502", "nom": "Poste 63kV", "type": "poste_htb", "geometry": {"type": "Point", "coordinates": [4.8858, 45.8122]}, "tension_kv": 63, "puissance_mva": 100, "region": "AuRA"}, {"asset_id": "htb_paca_0503", "nom": "d'Apt", "type": "poste_htb", "geometry": {"type": "Point", "coordinates": [5.376, 43.88989]}, "tension_kv": 63, "puissance_mva": 100, "region": "PACA"},